zip,state,city,lat,lng
35004,AL,Acmar,33.584132,-86.51557
35005,AL,Adamsville,33.588437,-86.959727
35006,AL,Adger,33.434277,-87.167455
35007,AL,Keystone,33.236868,-86.812861
35010,AL,New Site,32.941445,-85.951086
35014,AL,Alpine,33.331165,-86.208934
35016,AL,Arab,34.328339,-86.489638
35019,AL,Baileyton,34.268298,-86.621299
35020,AL,Bessemer,33.409002,-86.947547
35023,AL,Hueytown,33.414625,-86.999607
35031,AL,Blountsville,34.092937,-86.568628
35033,AL,Bremen,33.973664,-87.004281
35034,AL,Brent,32.93567,-87.211387
35035,AL,Brierfield,33.042747,-86.951672
35040,AL,Calera,33.1098,-86.755987
35042,AL,Centreville,32.950324,-87.11924
35043,AL,Chelsea,33.371582,-86.614132
35044,AL,Coosa Pines,33.266928,-86.337622
35045,AL,Clanton,32.835532,-86.642472
35049,AL,Cleveland,33.992106,-86.559355
35051,AL,Columbiana,33.176964,-86.616145
35053,AL,Crane Hill,34.082117,-87.048395
35054,AL,Cropwell,33.506448,-86.280026
35055,AL,Cullman,34.176146,-86.829777
35061,AL,Dolomite,33.465424,-86.956435
35062,AL,Dora,33.734947,-87.040148
35063,AL,Empire,33.825589,-87.016139
35064,AL,Fairfield,33.473494,-86.918262
35068,AL,Coalburg,33.611283,-86.813614
35071,AL,Gardendale,33.71891,-86.822481
35072,AL,Goodwater,33.074642,-86.078149
35073,AL,Alden,33.63356,-86.948221
35077,AL,Hanceville,34.051569,-86.784844
35078,AL,Harpersville,33.36746,-86.429441
35079,AL,Hayden,33.885806,-86.81767
35080,AL,Helena,33.316978,-86.813786
35083,AL,Holly Pond,34.190085,-86.617441
35085,AL,Jemison,32.980539,-86.718052
35087,AL,Joppa,34.283739,-86.551939
35089,AL,Kellyton,32.979068,-86.048397
35091,AL,Kimberly,33.768355,-86.808417
35094,AL,Leeds,33.528333,-86.574824
35096,AL,Lincoln,33.605913,-86.111152
35098,AL,Logan,34.184079,-87.038115
35111,AL,Mc Calla,33.284546,-87.102379
35114,AL,Maylene,33.231694,-86.872745
35115,AL,Montevallo,33.124765,-86.862228
35116,AL,Morris,33.739172,-86.772551
35117,AL,Mount Olive,33.67678,-86.87171
35118,AL,Sylvan Springs,33.540696,-87.043998
35120,AL,Odenville,33.675611,-86.408952
35121,AL,Oneonta,33.925858,-86.474118
35124,AL,Indian Springs,33.31046,-86.806176
35125,AL,Pell City,33.597889,-86.343151
35126,AL,Dixiana,33.708131,-86.656542
35127,AL,Pleasant Grove,33.488336,-86.976586
35130,AL,Quinton,33.656065,-87.10066
35131,AL,Ragland,33.736677,-86.1619
35133,AL,Remlap,33.846204,-86.641662
35135,AL,Riverside,33.608832,-86.198341
35136,AL,Rockford,32.877957,-86.240006
35143,AL,Shelby,33.078483,-86.553606
35146,AL,Springville,33.738647,-86.439407
35147,AL,Sterrett,33.446103,-86.491732
35148,AL,Sumiton,33.768005,-87.044545
35150,AL,Sylacauga,33.171675,-86.271257
35160,AL,Talladega,33.435445,-86.113352
35171,AL,Thorsby,32.923755,-86.746724
35172,AL,Trafford,33.819038,-86.743414
35173,AL,Trussville,33.633932,-86.598068
35175,AL,Union Grove,34.409345,-86.462793
35176,AL,Vandiver,33.480704,-86.501278
35178,AL,Vincent,33.401049,-86.399425
35179,AL,Vinemont,34.262121,-86.912512
35180,AL,Warrior,33.852862,-86.819849
35183,AL,Weogufka,33.02381,-86.304203
35184,AL,West Blocton,33.142431,-87.13694
35186,AL,Wilsonville,33.229255,-86.529894
35188,AL,Woodstock,33.169808,-87.163469
35203,AL,Birmingham,33.520994,-86.806626
35209,AL,Homewood,33.469624,-86.806738
35210,AL,Irondale,33.532797,-86.685697
35213,AL,Crestline Height,33.508195,-86.742108
35215,AL,Center Point,33.635447,-86.693197
35216,AL,Vestavia Hills,33.41531,-86.790425
35223,AL,Mountain Brook,33.488726,-86.736584
35226,AL,Bluff Park,33.403675,-86.831257
35228,AL,Midfield,33.462446,-86.914703
35242,AL,Shoal Creek,33.401559,-86.705511
35243,AL,Cahaba Heights,33.446053,-86.743676
35244,AL,Hoover,33.371776,-86.776381
35401,AL,Tuscaloosa,33.196891,-87.562666
35404,AL,Holt,33.210914,-87.488079
35441,AL,Stewart,32.872354,-87.708558
35442,AL,Aliceville,33.122813,-88.166689
35443,AL,Boligee,32.774646,-88.026652
35444,AL,Brookwood,33.277523,-87.309025
35446,AL,Buhl,33.249448,-87.718886
35447,AL,Carrollton,33.248506,-88.132122
35452,AL,Coker,33.252612,-87.636528
35453,AL,Cottondale,33.176667,-87.387051
35456,AL,Duncanville,33.082815,-87.494977
35457,AL,Echola,33.316559,-87.807202
35458,AL,Elrod,33.343678,-87.801429
35459,AL,Emelle,32.754963,-88.305747
35460,AL,Epes,32.763371,-88.161443
35461,AL,Ethelsville,33.386816,-88.221987
35462,AL,Eutaw,32.888871,-87.930297
35463,AL,Fosters,33.135859,-87.735688
35464,AL,Gainesville,32.908364,-88.271558
35466,AL,Gordo,33.346917,-87.900504
35469,AL,Knoxville,32.982423,-87.791855
35470,AL,Coatopa,32.588509,-88.173592
35474,AL,Cypress,32.978853,-87.615134
35476,AL,Northport,33.283425,-87.591441
35480,AL,Ralph,33.062868,-87.744984
35481,AL,Reform,33.395945,-88.020277
35490,AL,Vance,33.17498,-87.257362
35501,AL,Jasper,33.871672,-87.249144
35540,AL,Addison,34.205571,-87.194766
35541,AL,Arley,34.063234,-87.182761
35542,AL,Bankston,33.70083,-87.68965
35543,AL,Bear Creek,34.213469,-87.686083
35544,AL,Beaverton,33.942877,-88.01567
35546,AL,Berry,33.694485,-87.622563
35548,AL,Brilliant,34.037702,-87.756315
35549,AL,Carbon Hill,33.909252,-87.540328
35550,AL,Cordova,33.768033,-87.18406
35552,AL,Detroit,34.010874,-88.16063
35553,AL,Double Springs,34.138682,-87.397431
35554,AL,Eldridge,33.931546,-87.619397
35555,AL,Fayette,33.697397,-87.834647
35563,AL,Guin,33.967624,-87.90238
35564,AL,Hackleburg,34.267803,-87.860762
35565,AL,Haleyville,34.231423,-87.593811
35570,AL,Hamilton,34.153413,-88.008521
35571,AL,Hodges,34.341664,-87.959023
35572,AL,Houston,34.118042,-87.26183
35574,AL,Kennedy,33.574964,-88.05172
35575,AL,Lynn,34.052984,-87.539814
35576,AL,Millport,33.54013,-88.200003
35578,AL,Nauvoo,33.929859,-87.432449
35579,AL,Oakman,33.700174,-87.368574
35580,AL,Parrish,33.721307,-87.265773
35581,AL,Phil Campbell,34.347018,-87.715431
35582,AL,Red Bay,34.451259,-88.112914
35585,AL,Spruce Pine,34.384796,-87.712149
35586,AL,Sulligent,33.8549,-88.150774
35587,AL,Townley,33.84702,-87.437248
35592,AL,Vernon,33.761285,-88.097919
35593,AL,Vina,34.37116,-88.077422
35594,AL,Winfield,33.930256,-87.79716
35601,AL,Decatur,34.589599,-86.98868
35610,AL,Anderson,34.951777,-87.272327
35611,AL,Athens,34.803604,-86.970733
35616,AL,Cherokee,34.744188,-87.972445
35618,AL,Courtland,34.671866,-87.314255
35619,AL,Danville,34.452189,-87.053187
35620,AL,Elkmont,34.915241,-86.910452
35621,AL,Eva,34.347778,-86.704427
35622,AL,Falkville,34.347653,-86.913086
35630,AL,Florence,34.830547,-87.655985
35640,AL,Hartselle,34.448206,-86.924235
35643,AL,Hillsboro,34.64763,-87.180379
35645,AL,Killen,34.901632,-87.508185
35646,AL,Leighton,34.710982,-87.522133
35647,AL,Lester,34.918364,-87.143396
35648,AL,Lexington,34.955924,-87.393519
35650,AL,Moulton,34.505836,-87.222385
35651,AL,Mount Hope,34.462969,-87.451453
35652,AL,Rogersville,34.849544,-87.323671
35653,AL,Russellville,34.506568,-87.725726
35660,AL,Sheffield,34.757829,-87.697057
35661,AL,Muscle Shoals,34.756136,-87.630443
35670,AL,Somerville,34.499548,-86.800931
35671,AL,Tanner,34.713037,-86.989152
35672,AL,Town Creek,34.649138,-87.426195
35673,AL,Trinity,34.591771,-87.09127
35674,AL,Tuscumbia,34.687432,-87.683259
35677,AL,Waterloo,34.93568,-87.962412
35739,AL,Ardmore,34.980447,-86.834612
35740,AL,Bridgeport,34.944638,-85.727681
35741,AL,Brownsboro,34.716733,-86.468703
35744,AL,Dutton,34.604558,-85.906729
35745,AL,Estillfork,34.913017,-86.171571
35746,AL,Fackler,34.82589,-85.984648
35747,AL,Grant,34.495902,-86.259041
35748,AL,Gurley,34.713964,-86.394028
35749,AL,Harvest,34.82732,-86.749929
35750,AL,Hazel Green,34.949627,-86.593484
35751,AL,Hollytree,34.798979,-86.233627
35752,AL,Hollywood,34.730428,-85.953173
35754,AL,Laceys Spring,34.499647,-86.612869
35755,AL,Langston,34.497831,-86.10563
35758,AL,Triana,34.713409,-86.750951
35759,AL,Meridianville,34.861779,-86.578879
35760,AL,New Hope,34.549445,-86.3961
35761,AL,New Market,34.899991,-86.448742
35763,AL,Big Cove,34.612859,-86.466577
35764,AL,Paint Rock,34.667122,-86.332562
35765,AL,Pisgah,34.688601,-85.803044
35766,AL,Princeton,34.840217,-86.250068
35768,AL,Hytop,34.67227,-86.051336
35771,AL,Section,34.543275,-85.994002
35772,AL,Stevenson,34.876885,-85.850803
35773,AL,Toney,34.911644,-86.699951
35774,AL,Trenton,34.740065,-86.291264
35775,AL,Valhermoso Sprin,34.538145,-86.678
35776,AL,Woodville,34.668927,-86.22961
35801,AL,Huntsville,34.726866,-86.567318
35901,AL,Southside,33.997248,-86.010279
35903,AL,Hokes Bluff,33.997057,-85.928724
35904,AL,Gadsden,34.021694,-86.049479
35905,AL,Glencoe,33.956787,-85.927586
35950,AL,Albertville,34.273859,-86.206447
35952,AL,Snead,34.042916,-86.350879
35953,AL,Ashville,33.837366,-86.255167
35954,AL,Attalla,34.029597,-86.096717
35957,AL,Boaz,34.173686,-86.148003
35958,AL,Bryant,34.945026,-85.632445
35959,AL,Cedar Bluff,34.241662,-85.602567
35960,AL,Centre,34.111592,-85.609229
35961,AL,Collinsville,34.267957,-85.861969
35962,AL,Crossville,34.258784,-86.030575
35963,AL,Dawson,34.356838,-85.929161
35966,AL,Flat Rock,34.807598,-85.708372
35967,AL,Fort Payne,34.436792,-85.712394
35971,AL,Fyffe,34.437284,-85.928849
35972,AL,Gallant,33.997586,-86.234606
35973,AL,Gaylesville,34.357324,-85.558893
35974,AL,Geraldine,34.343864,-86.040393
35975,AL,Groveoak,34.435874,-86.040023
35976,AL,Guntersville,34.32193,-86.305463
35978,AL,Henagar,34.618604,-85.727381
35979,AL,Higdon,34.873247,-85.622507
35980,AL,Horton,34.190033,-86.317318
35981,AL,Ider,34.735059,-85.641577
35983,AL,Leesburg,34.191083,-85.77051
35984,AL,Mentone,34.587236,-85.577728
35986,AL,Rainsville,34.498884,-85.844605
35987,AL,Steele,33.941679,-86.228929
35988,AL,Sylvania,34.558962,-85.792128
35989,AL,Valley Head,34.5697,-85.627208
36003,AL,Autaugaville,32.462462,-86.714938
36004,AL,Eufaula,31.786701,-85.239657
36005,AL,Banks,31.836792,-85.799844
36006,AL,Billingsley,32.610578,-86.716301
36009,AL,Brantley,31.570963,-86.274343
36010,AL,Brundidge,31.701324,-85.817668
36013,AL,Cecil,32.300891,-86.011241
36016,AL,Clayton,31.887413,-85.450932
36017,AL,Clio,31.68521,-85.590419
36022,AL,Deatsville,32.613405,-86.338211
36024,AL,Eclectic,32.65419,-86.031614
36025,AL,Elmore,32.545378,-86.316134
36026,AL,Equality,32.813908,-86.105064
36028,AL,Dozier,31.506614,-86.366315
36029,AL,Fitzpatrick,32.151607,-85.888329
36030,AL,Forest Home,31.85318,-86.786377
36031,AL,Fort Davis,32.28945,-85.700688
36032,AL,Fort Deposit,31.995979,-86.576142
36033,AL,Georgiana,31.628662,-86.733965
36034,AL,Glenwood,31.664143,-86.170972
36035,AL,Goshen,31.82497,-86.104851
36036,AL,Grady,32.019397,-86.129246
36037,AL,Greenville,31.810036,-86.622919
36038,AL,Gantt,31.416909,-86.419836
36039,AL,Hardaway,32.312939,-85.883837
36040,AL,Hayneville,32.195707,-86.654994
36041,AL,Highland Home,31.928292,-86.297111
36042,AL,Honoraville,31.878397,-86.398064
36043,AL,Hope Hull,32.224256,-86.393189
36046,AL,Lapine,31.985423,-86.278534
36047,AL,Letohatchee,32.086199,-86.488013
36048,AL,Louisville,31.794262,-85.558062
36049,AL,Luverne,31.70739,-86.256601
36051,AL,Marbury,32.639373,-86.510138
36052,AL,Mathews,32.128288,-86.041262
36053,AL,Midway,32.09552,-85.531523
36054,AL,Millbrook,32.499485,-86.364125
36061,AL,Perote,32.003459,-85.74773
36064,AL,Pike Road,32.335705,-86.09589
36066,AL,Prattville,32.478695,-86.42997
36069,AL,Ramer,32.067745,-86.246329
36071,AL,Rutledge,31.755867,-86.348464
36075,AL,Shorter,32.383585,-85.91616
36078,AL,Tallassee,32.550997,-85.89781
36080,AL,Titus,32.690019,-86.239334
36081,AL,Troy,31.794471,-85.965493
36083,AL,Tuskegee,32.431623,-85.68606
36088,AL,Tuskegee Institu,32.417699,-85.714848
36089,AL,Union Springs,32.166252,-85.678746
36091,AL,Verbena,32.759565,-86.543753
36092,AL,Wetumpka,32.54509,-86.188039
36104,AL,Montgomery,32.373037,-86.308129
36113,AL,Maxwell A F B,32.388133,-86.355848
36115,AL,Gunter Afs,32.406814,-86.247327
36201,AL,Anniston,33.653896,-85.838152
36203,AL,Oxford,33.596829,-85.83347
36205,AL,Fort Mc Clellan,33.710168,-85.801467
36250,AL,Alexandria,33.780785,-85.892447
36251,AL,Ashland,33.247363,-85.828976
36255,AL,Cragford,33.217148,-85.710797
36256,AL,Daviston,33.033471,-85.753831
36258,AL,Delta,33.457303,-85.679279
36260,AL,Eastaboga,33.603132,-85.96075
36262,AL,Fruithurst,33.771732,-85.43814
36263,AL,Graham,33.462976,-85.334034
36264,AL,Heflin,33.611515,-85.588471
36265,AL,Jacksonville,33.830966,-85.77518
36266,AL,Lineville,33.328613,-85.734609
36267,AL,Millerville,33.158959,-85.969001
36268,AL,Munford,33.540987,-85.936322
36269,AL,Muscadine,33.752913,-85.378907
36270,AL,Newell,33.440172,-85.505925
36271,AL,Ohatchee,33.778779,-86.025357
36272,AL,Piedmont,33.838946,-85.645997
36273,AL,Ranburne,33.561627,-85.378604
36274,AL,Rock Mills,33.156443,-85.357854
36276,AL,Wadley,33.149192,-85.551344
36277,AL,Weaver,33.756286,-85.810666
36278,AL,Wedowee,33.301854,-85.473737
36279,AL,Wellington,33.863843,-85.915325
36280,AL,Woodland,33.355453,-85.353768
36301,AL,Taylor,31.202888,-85.418036
36303,AL,Napier Field,31.255239,-85.412462
36310,AL,Abbeville,31.575479,-85.279044
36311,AL,Ariton,31.582996,-85.707716
36312,AL,Ashford,31.1888,-85.253488
36314,AL,Black,31.01318,-85.745634
36316,AL,Chancellor,31.173379,-85.910897
36317,AL,Clopton,31.602843,-85.482308
36318,AL,Coffee Springs,31.138758,-85.918224
36319,AL,Columbia,31.335235,-85.145488
36320,AL,Cottonwood,31.098934,-85.375665
36322,AL,Daleville,31.281091,-85.730473
36323,AL,Elba,31.41373,-86.077728
36330,AL,Enterprise,31.340789,-85.842111
36340,AL,Geneva,31.041445,-85.884748
36343,AL,Gordon,31.10019,-85.123412
36344,AL,Hartford,31.08598,-85.719204
36345,AL,Headland,31.353406,-85.332277
36346,AL,Jack,31.552392,-86.043083
36349,AL,Malvern,31.157528,-85.522327
36350,AL,Midland City,31.36716,-85.513033
36351,AL,New Brockton,31.36898,-85.940386
36352,AL,Newton,31.331064,-85.599229
36353,AL,Newville,31.440295,-85.328741
36360,AL,Ozark,31.439069,-85.643629
36362,AL,Fort Rucker,31.348011,-85.721374
36370,AL,Pansey,31.131778,-85.238549
36373,AL,Shorterville,31.625627,-85.14584
36374,AL,Skipperville,31.551588,-85.549578
36375,AL,Slocomb,31.095558,-85.582954
36376,AL,Webb,31.265618,-85.254385
36401,AL,Evergreen,31.458009,-86.925771
36419,AL,Allen,31.624266,-87.66746
36420,AL,Andalusia,31.297142,-86.490468
36425,AL,Beatrice,31.727324,-87.171912
36426,AL,East Brewton,31.118926,-87.067325
36432,AL,Castleberry,31.326113,-87.026754
36435,AL,Coy,31.888851,-87.392558
36436,AL,Dickinson,31.717167,-87.656929
36441,AL,Flomaton,31.040233,-87.266365
36442,AL,Florala,31.017194,-86.338528
36444,AL,Franklin,31.723815,-87.441237
36445,AL,Frisco City,31.423478,-87.381744
36446,AL,Fulton,31.790947,-87.708065
36451,AL,Grove Hill,31.675502,-87.763571
36453,AL,Kinston,31.262118,-86.069532
36454,AL,Lenox,31.327261,-87.19671
36456,AL,Mc Kenzie,31.54495,-86.735615
36460,AL,Monroeville,31.51533,-87.340993
36467,AL,Opp,31.279861,-86.257105
36471,AL,Peterman,31.589953,-87.259984
36473,AL,Range,31.30169,-87.319739
36474,AL,Red Level,31.439931,-86.61209
36475,AL,Repton,31.425569,-87.172039
36477,AL,Samson,31.104918,-86.067416
36480,AL,Uriah,31.313467,-87.570518
36481,AL,Vredenburgh,31.73443,-87.416184
36482,AL,Whatley,31.639453,-87.656502
36483,AL,Wing,31.148127,-86.56119
36502,AL,Atmore,31.057245,-87.487347
36505,AL,Axis,31.006817,-88.04274
36507,AL,Bay Minette,30.86354,-87.76444
36509,AL,Bayou La Batre,30.407983,-88.250697
36510,AL,Bigbee,31.589072,-88.165294
36511,AL,Bon Secour,30.328883,-87.721355
36515,AL,Carlton,31.322449,-87.837793
36518,AL,Chatom,31.487638,-88.269887
36521,AL,Chunchula,30.991178,-88.131126
36522,AL,Citronelle,31.042533,-88.254949
36523,AL,Coden,30.418834,-88.168276
36524,AL,Coffeeville,31.78428,-88.071542
36525,AL,Creola,30.901267,-88.017414
36526,AL,Daphne,30.61972,-87.889522
36527,AL,Spanish Fort,30.695852,-87.88668
36528,AL,Dauphin Island,30.252057,-88.109644
36529,AL,Deer Park,31.184892,-88.32731
36530,AL,Elberta,30.394239,-87.58896
36532,AL,Fairhope,30.50116,-87.883546
36535,AL,Foley,30.400664,-87.685737
36538,AL,Frankville,31.64684,-88.133185
36539,AL,Fruitdale,31.348843,-88.376597
36540,AL,Gainestown,31.425822,-87.682176
36541,AL,Grand Bay,30.498288,-88.32825
36542,AL,Fort Morgan,30.268954,-87.712795
36544,AL,Irvington,30.480241,-88.239563
36545,AL,Jackson,31.513098,-87.867192
36548,AL,Leroy,31.491021,-87.968672
36549,AL,Lillian,30.39724,-87.474452
36550,AL,Little River,31.22459,-87.754796
36551,AL,Loxley,30.617964,-87.75624
36553,AL,Mc Intosh,31.236108,-88.051102
36555,AL,Magnolia Springs,30.394497,-87.785781
36558,AL,Millry,31.626871,-88.355872
36560,AL,Mount Vernon,31.097375,-88.035044
36561,AL,Orange Beach,30.290596,-87.555888
36562,AL,Perdido,30.98058,-87.628374
36567,AL,Robertsdale,30.561608,-87.637268
36569,AL,Saint Stephens,31.533028,-88.052094
36570,AL,Salitpa,31.654667,-87.959618
36571,AL,Saraland,30.833197,-88.093387
36572,AL,Satsuma,30.851628,-88.053312
36574,AL,Seminole,30.504806,-87.465938
36575,AL,Semmes,30.754408,-88.266705
36576,AL,Silverhill,30.522237,-87.745676
36579,AL,Stockton,31.01293,-87.863323
36580,AL,Summerdale,30.475225,-87.699183
36582,AL,Theodore,30.544374,-88.180748
36583,AL,Tibbie,31.373742,-88.266828
36584,AL,Vinegar Bend,31.25841,-88.386466
36585,AL,Wagarville,31.410205,-88.070519
36586,AL,Walker Springs,31.626166,-87.835355
36587,AL,Wilmer,30.813745,-88.333196
36602,AL,Mobile,30.688828,-88.045308
36610,AL,Prichard,30.737846,-88.083761
36611,AL,Chickasaw,30.766821,-88.084973
36613,AL,Eight Mile,30.795074,-88.182311
36615,AL,Brookley Field,30.631199,-88.068871
36701,AL,Selma,32.419719,-87.024527
36720,AL,Alberta,32.144889,-87.342503
36722,AL,Arlington,32.066784,-87.559691
36726,AL,Camden,32.004732,-87.295049
36727,AL,Campbell,31.963512,-88.006072
36728,AL,Catherine,32.182,-87.483623
36732,AL,Demopolis,32.490792,-87.839669
36736,AL,Dixons Mills,32.067209,-87.745356
36738,AL,Faunsdale,32.423259,-87.618079
36740,AL,Forkland,32.644661,-87.881676
36742,AL,Gallion,32.529771,-87.698542
36744,AL,Greensboro,32.716721,-87.590494
36748,AL,Linden,32.305343,-87.795358
36749,AL,Jones,32.608515,-86.889266
36750,AL,Maplesville,32.804507,-86.871704
36751,AL,Lower Peach Tree,31.850365,-87.568224
36752,AL,Burkville,32.300292,-86.609868
36754,AL,Magnolia,32.141931,-87.699815
36756,AL,Marion,32.646301,-87.331437
36758,AL,Plantersville,32.617608,-86.947531
36759,AL,Marion Junction,32.426589,-87.270181
36761,AL,Boys Ranch,32.095387,-86.92497
36762,AL,Morvin,31.967305,-87.972897
36765,AL,Newbern,32.551465,-87.561472
36767,AL,Orrville,32.294859,-87.221368
36768,AL,Pine Apple,31.926522,-87.004667
36769,AL,Pine Hill,31.973546,-87.577086
36771,AL,Prairie,32.084762,-87.448723
36773,AL,Safford,32.300242,-87.369345
36775,AL,Sardis,32.284358,-86.991959
36776,AL,Sawyerville,32.757796,-87.740201
36779,AL,Sprott,32.654376,-87.141599
36782,AL,Sweet Water,32.077272,-87.922755
36783,AL,Thomaston,32.253776,-87.597438
36784,AL,Thomasville,31.906728,-87.759842
36785,AL,Benton,32.281924,-86.859867
36786,AL,Uniontown,32.446966,-87.493398
36790,AL,Stanton,32.709631,-86.886848
36792,AL,Randolph,32.888834,-86.90701
36793,AL,Lawley,32.864558,-86.956708
36801,AL,Opelika,32.627771,-85.358629
36830,AL,Auburn,32.602043,-85.489001
36850,AL,Camp Hill,32.782749,-85.64738
36852,AL,Cusseta,32.803194,-85.215791
36853,AL,Dadeville,32.82239,-85.770395
36854,AL,Valley,32.811349,-85.174911
36855,AL,Five Points,33.042408,-85.324264
36858,AL,Hatchechubbee,32.284531,-85.302882
36860,AL,Hurtsboro,32.245429,-85.395903
36861,AL,Jacksons Gap,32.879698,-85.848662
36862,AL,Lafayette,32.925237,-85.442563
36863,AL,Lanett,32.861609,-85.21608
36866,AL,Notasulga,32.543727,-85.68707
36867,AL,Phenix City,32.407816,-85.095082
36871,AL,Pittsview,32.173346,-85.131248
36874,AL,Salem,32.621157,-85.183966
36875,AL,Seale,32.305339,-85.167733
36877,AL,Smiths,32.520072,-85.100027
36879,AL,Waverly,32.763167,-85.514372
36904,AL,Butler,32.082906,-88.206391
36907,AL,Cuba,32.410973,-88.361083
36908,AL,Gilbertown,31.866602,-88.326514
36910,AL,Jachin,32.244174,-88.233356
36912,AL,Lisman,32.217722,-88.323419
36915,AL,Needham,32.012165,-88.345798
36916,AL,Pennington,32.226245,-88.0931
36919,AL,Silas,31.766754,-88.309149
36921,AL,Toxey,31.93153,-88.31794
36922,AL,Ward,32.334063,-88.297114
36925,AL,York,32.472765,-88.268304
98791,AK,98791,51.938901,-176.310048
99501,AK,Anchorage,61.211571,-149.876077
99505,AK,Fort Richardson,61.275256,-149.675454
99506,AK,Elmendorf Afb,61.251531,-149.812667
99549,AK,Port Heiden,56.964333,-158.566367
99551,AK,Akiachak,60.891854,-161.39233
99552,AK,Akiak,60.890632,-161.199325
99553,AK,Akutan,54.143012,-165.785368
99554,AK,Alakanuk,62.746967,-164.60228
99555,AK,Aleknagik,59.269688,-158.619882
99556,AK,Nikolaevsk,59.788818,-151.732933
99557,AK,Chuathbaluk,61.691648,-157.758502
99558,AK,Anvik,62.830913,-160.130441
99559,AK,Atmautluak,60.832389,-161.824053
99561,AK,Chefornak,60.153746,-164.210294
99563,AK,Chevak,61.583982,-164.776457
99564,AK,Chignik,56.301639,-158.415696
99565,AK,Chignik Lagoon,56.251277,-158.673528
99567,AK,Chugiak,61.409802,-149.453736
99568,AK,Clam Gulch,60.201603,-151.422628
99569,AK,Clarks Point,58.84921,-158.451241
99571,AK,Nelson Lagoon,55.610952,-161.942941
99572,AK,Cooper Landing,60.476692,-149.823514
99573,AK,Copper Center,61.91581,-144.97793
99574,AK,Chenega Bay,60.102558,-147.943316
99575,AK,Crooked Creek,61.818072,-158.002483
99576,AK,Koliganek,59.059279,-158.973533
99577,AK,Eagle River,61.311357,-149.508515
99578,AK,Eek,60.215058,-162.032341
99579,AK,Egegik,58.206174,-157.342202
99580,AK,Ekwok,59.362792,-157.478211
99581,AK,Emmonak,62.827404,-164.131298
99583,AK,False Pass,54.841028,-163.436845
99585,AK,Marshall,61.837087,-161.7394
99586,AK,Slana,62.654744,-143.568393
99588,AK,Glennallen,62.103895,-145.661684
99589,AK,Goodnews Bay,59.085008,-161.587146
99590,AK,Grayling,63.372013,-159.404907
99591,AK,Saint George Isl,56.60324,-169.547257
99602,AK,Holy Cross,62.192584,-159.825092
99603,AK,Port Graham,59.665495,-151.462644
99604,AK,Hooper Bay,61.537157,-165.891045
99606,AK,Kokhanok,59.564836,-155.462556
99607,AK,Kalskag,61.541006,-160.3261
99610,AK,Kasilof,60.316365,-151.28958
99611,AK,Kenai,60.614467,-151.254556
99612,AK,King Cove,55.062848,-162.305561
99613,AK,Igiugig,58.724264,-156.641603
99614,AK,Kipnuk,59.923204,-164.101013
99615,AK,Akhiok,57.781967,-152.500169
99620,AK,Kotlik,63.029471,-163.554153
99621,AK,Kwethluk,60.771814,-161.38849
99622,AK,Kwigillingok,59.881022,-162.984938
99625,AK,Levelock,59.371395,-154.976815
99626,AK,Lower Kalskag,61.51377,-160.359966
99627,AK,Mc Grath,62.967153,-155.585153
99628,AK,Manokotak,59.009559,-158.989699
99630,AK,Mekoryuk,60.365679,-166.283583
99631,AK,Moose Pass,60.85852,-149.255911
99632,AK,Mountain Village,62.158913,-163.883822
99633,AK,Naknek,58.885699,-156.705405
99634,AK,Napakiak,60.663758,-161.738144
99636,AK,New Stuyahok,59.593533,-157.297205
99638,AK,Nikolski,52.988337,-168.788427
99639,AK,Ninilchik,60.010833,-151.639604
99640,AK,Nondalton,60.030837,-154.731675
99645,AK,Butte,61.613814,-149.065323
99647,AK,Pedro Bay,59.92238,-153.821856
99648,AK,Perryville,55.945289,-159.259333
99649,AK,Pilot Point,57.595193,-157.449272
99650,AK,Pilot Station,61.946159,-162.874716
99651,AK,Platinum,58.63364,-162.043201
99653,AK,Port Alsworth,60.636416,-154.433803
99654,AK,Wasilla,61.592349,-149.395875
99655,AK,Quinhagak,59.738057,-161.874938
99656,AK,Red Devil,61.735389,-157.195969
99657,AK,Russian Mission,61.591302,-161.558413
99658,AK,Saint Marys,62.054106,-163.205263
99659,AK,Saint Michael,63.47759,-162.109141
99660,AK,Saint Paul Islan,57.178697,-170.293408
99661,AK,Sand Point,55.319236,-160.491435
99662,AK,Scammon Bay,61.845019,-165.581945
99664,AK,Seward,60.132874,-149.39849
99665,AK,Shageluk,62.661092,-159.52816
99668,AK,Sleetmute,61.634555,-157.118284
99669,AK,Soldotna,60.481778,-151.13582
99670,AK,South Naknek,58.736221,-156.850289
99671,AK,Stebbins,63.478468,-162.227355
99672,AK,Sterling,60.520373,-150.849792
99676,AK,Talkeetna,62.260516,-150.110097
99679,AK,Tuluksak,61.108848,-160.938924
99681,AK,Tununak,60.539322,-165.097464
99682,AK,Tyonek,61.117929,-151.348495
99683,AK,Trapper Creek,61.441361,-150.284455
99684,AK,Unalakleet,63.883478,-160.788365
99685,AK,Unalaska,53.887114,-166.519855
99686,AK,Valdez,60.895044,-146.195628
99688,AK,Willow,61.771511,-150.188891
99689,AK,Yakutat,59.620211,-139.778858
99691,AK,Nikolai,63.001603,-154.381247
99692,AK,Dutch Harbor,53.362757,-167.510656
99701,AK,Coldfoot,64.840238,-147.710431
99702,AK,Eielson Afb,64.67352,-147.08051
99703,AK,Fort Wainwright,64.828303,-147.655673
99704,AK,Clear,64.418121,-149.139885
99705,AK,North Pole,64.78049,-147.369353
99709,AK,Fairbanks,64.85437,-147.846917
99714,AK,Salcha,64.50905,-146.952974
99720,AK,Allakaket,66.543197,-152.712155
99721,AK,Anaktuvuk Pass,68.11878,-151.679005
99722,AK,Arctic Village,68.077395,-145.423115
99723,AK,Barrow,71.234637,-156.817409
99724,AK,Beaver,66.33883,-147.279803
99726,AK,Bettles Field,67.100495,-151.062414
99727,AK,Buckland,65.981052,-161.131676
99729,AK,Cantwell,63.395458,-148.89735
99730,AK,Central,65.468058,-144.74886
99733,AK,Circle,65.824542,-144.08262
99734,AK,Prudhoe Bay,70.070057,-148.559636
99736,AK,Deering,66.062265,-162.711951
99737,AK,Dot Lake,64.005426,-145.613611
99739,AK,Elim,64.621662,-162.260371
99740,AK,Fort Yukon,66.520744,-145.306439
99741,AK,Galena,64.760784,-156.797701
99742,AK,Gambell,63.776555,-171.701685
99743,AK,Healy,63.917123,-149.011128
99745,AK,Hughes,66.038246,-154.26443
99746,AK,Huslia,65.689918,-156.291976
99747,AK,Kaktovik,70.042889,-143.631329
99748,AK,Kaltag,64.330452,-158.724251
99749,AK,Kiana,67.18026,-158.152204
99750,AK,Kivalina,67.665859,-163.733617
99751,AK,Kobuk,66.912253,-157.066864
99752,AK,Kotzebue,66.846459,-162.126493
99753,AK,Koyuk,64.931668,-161.149957
99755,AK,Denali National,63.516075,-149.539532
99756,AK,Manley Hot Sprin,65.02058,-150.573267
99757,AK,Lake Minchumina,63.903884,-152.430081
99758,AK,Minto,65.058399,-149.691186
99759,AK,Point Lay,69.705626,-162.906148
99760,AK,Nenana,64.557656,-149.086744
99761,AK,Noatak,66.97553,-160.509453
99762,AK,Golovin,64.505775,-165.310667
99763,AK,Noorvik,66.836353,-161.044132
99765,AK,Nulato,64.778024,-157.991353
99766,AK,Point Hope,68.312058,-166.72618
99767,AK,Rampart,65.383627,-150.011201
99768,AK,Ruby,64.720062,-155.503872
99769,AK,Savoonga,63.679737,-170.470908
99770,AK,Selawik,65.713537,-158.534287
99771,AK,Shaktoolik,64.375498,-161.174589
99772,AK,Shishmaref,66.230562,-166.137276
99773,AK,Shungnak,66.958141,-157.613496
99774,AK,Stevens Village,65.995894,-149.118286
99777,AK,Tanana,65.156483,-152.103747
99778,AK,Teller,65.240164,-166.3833
99780,AK,Border,63.435022,-142.523046
99781,AK,Venetie,67.010446,-146.413723
99782,AK,Wainwright,70.620064,-160.012532
99783,AK,Wales,65.688212,-168.520521
99784,AK,White Mountain,64.702791,-163.42185
99785,AK,Brevig Mission,65.334187,-166.478578
99786,AK,Ambler,67.46951,-156.455652
99788,AK,Chalkyitsik,66.719,-143.638121
99789,AK,Nuiqsut,70.192737,-150.997119
99801,AK,Juneau,58.362767,-134.529429
99820,AK,Angoon,57.569832,-134.371052
99824,AK,Douglas,58.275597,-134.395041
99826,AK,Gustavus,58.42835,-135.761542
99827,AK,Haines,59.251886,-135.542032
99829,AK,Hoonah,58.032237,-135.558435
99833,AK,Petersburg,56.827134,-133.160683
99835,AK,Sitka,57.051436,-135.316569
99840,AK,Skagway,59.468471,-135.301794
99901,AK,Ketchikan,55.372028,-131.683175
99919,AK,Thorne Bay,55.66086,-132.513815
99921,AK,Craig,55.47317,-133.117081
99922,AK,Hydaburg,55.137406,-132.633175
99923,AK,Hyder,55.925867,-130.124915
99925,AK,Klawock,55.552611,-133.055503
99926,AK,Metlakatla,55.121491,-131.579001
99927,AK,Point Baker,56.307858,-133.376372
99929,AK,Wrangell,56.433524,-132.352918
85003,AZ,Phoenix,33.451095,-112.077428
85027,AZ,New River Stage,33.667157,-112.102723
85201,AZ,Mesa,33.43174,-111.846931
85219,AZ,Gold Canyon,33.360787,-111.51331
85220,AZ,Apache Junction,33.415211,-111.571818
85222,AZ,Eleven Mile Corn,32.892667,-111.756093
85224,AZ,Chandler,33.330091,-111.863156
85228,AZ,Coolidge,32.957399,-111.534378
85231,AZ,Eloy,32.750929,-111.583275
85234,AZ,Gilbert,33.352746,-111.780876
85236,AZ,Higley,33.302382,-111.696926
85237,AZ,Kearny,33.059443,-110.91227
85240,AZ,Williams Afb,33.310289,-111.668801
85242,AZ,Arizona Boys Ran,33.238577,-111.643596
85247,AZ,Sacaton,33.097699,-111.775162
85248,AZ,Sun Lakes,33.223056,-111.866899
85250,AZ,Scottsdale,33.521767,-111.904926
85253,AZ,Paradise Valley,33.549439,-111.956546
85264,AZ,Fort Mcdowell,33.611807,-111.68062
85268,AZ,Fountain Hills,33.608489,-111.723685
85272,AZ,Stanfield,32.882321,-111.965987
85273,AZ,Superior,33.288716,-111.09846
85281,AZ,Tempe,33.422675,-111.926144
85292,AZ,Winkelman,33.00572,-110.772682
85301,AZ,Glendale,33.531122,-112.176703
85307,AZ,Luke Afb,33.534879,-112.326735
85321,AZ,Why,32.373485,-112.858681
85323,AZ,Avondale,33.432114,-112.343754
85324,AZ,Rock Springs,34.073197,-112.130956
85326,AZ,Buckeye,33.38896,-112.607728
85328,AZ,Cibola,33.614886,-114.512204
85331,AZ,Cave Creek,33.821896,-112.015106
85332,AZ,Congress,34.176425,-112.76801
85333,AZ,Dateland,32.867886,-113.463126
85335,AZ,El Mirage,33.608153,-112.324147
85337,AZ,Gila Bend,32.93059,-112.746832
85338,AZ,Goodyear,33.436809,-112.383385
85339,AZ,Laveen,33.343572,-112.171618
85340,AZ,Litchfield Park,33.494127,-112.380497
85342,AZ,Morristown,33.772993,-112.548331
85343,AZ,Palo Verde,33.34848,-112.646662
85344,AZ,Empire Landing,34.0254,-114.266342
85345,AZ,Peoria,33.576135,-112.234424
85347,AZ,Roll,32.936635,-113.564287
85348,AZ,Salome,33.748141,-113.571459
85350,AZ,Somerton,32.563398,-114.7127
85351,AZ,Sun City,33.606104,-112.279701
85353,AZ,Tolleson,33.434686,-112.277444
85354,AZ,Tonopah,33.422797,-112.952785
85355,AZ,Waddell,33.567285,-112.43869
85356,AZ,Wellton,32.749251,-114.176616
85361,AZ,Wittmann,33.726425,-112.446578
85362,AZ,Yarnell,34.414076,-112.62166
85363,AZ,Youngtown,33.590751,-112.301305
85364,AZ,Yuma,32.701507,-114.642362
85365,AZ,Yuma Proving Gro,32.671352,-114.548633
85374,AZ,Surprise,33.630028,-112.33143
85375,AZ,Sun City West,33.662576,-112.255434
85390,AZ,Wickenburg,33.911282,-112.738973
85501,AZ,Globe,33.402426,-110.789247
85530,AZ,Bylas,33.126549,-110.11702
85533,AZ,Clifton,33.132343,-109.246199
85535,AZ,Eden,33.028629,-109.953682
85539,AZ,Miami,33.431928,-110.881182
85540,AZ,Morenci,33.043593,-109.311517
85541,AZ,Payson,34.219779,-111.287774
85542,AZ,Peridot,33.478874,-110.37252
85543,AZ,Pima,32.909661,-109.856009
85544,AZ,Strawberry,34.390915,-111.473483
85545,AZ,Roosevelt,33.635753,-110.974884
85550,AZ,San Carlos,33.310643,-110.395323
85552,AZ,Thatcher,32.819902,-109.730245
85602,AZ,Benson,31.98826,-110.294113
85603,AZ,Bisbee,31.408557,-109.911736
85606,AZ,Cochise,32.097891,-109.92393
85610,AZ,Elfrida,31.713891,-109.619277
85611,AZ,Elgin,31.66002,-110.611403
85613,AZ,Fort Huachuca,31.558735,-110.344131
85614,AZ,Green Valley,31.854271,-111.000253
85615,AZ,Hereford,31.403545,-110.204728
85616,AZ,Huachuca City,31.663896,-110.333414
85617,AZ,Mc Neal,31.502969,-109.630971
85618,AZ,Mammoth,32.723875,-110.643961
85621,AZ,Nogales,31.376969,-110.943508
85623,AZ,Oracle,32.600506,-110.796126
85624,AZ,Patagonia,31.535317,-110.696774
85625,AZ,Pearce,31.966608,-109.795032
85629,AZ,Sahuarita,31.945169,-111.000154
85630,AZ,Saint David,31.897251,-110.215377
85631,AZ,San Manuel,32.695831,-110.656788
85632,AZ,Portal,32.208167,-109.367152
85634,AZ,Pisinemo,32.031572,-111.922207
85635,AZ,Sierra Vista,31.536467,-110.266565
85637,AZ,Sonoita,31.866154,-110.724418
85638,AZ,Tombstone,31.721598,-110.058449
85640,AZ,Amado,31.594194,-111.039693
85641,AZ,Vail,32.035926,-110.88375
85643,AZ,Willcox,32.372977,-109.863111
85653,AZ,Marana,32.404749,-111.273621
85701,AZ,Tucson,32.213873,-110.969445
85704,AZ,Casas Adobes,32.329175,-110.984593
85737,AZ,Oro Valley,32.431679,-110.954463
85901,AZ,Show Low,34.060117,-110.054633
85922,AZ,Blue,33.651245,-109.06849
85924,AZ,Concho,34.445787,-109.674096
85925,AZ,Eagar,33.954571,-109.246933
85928,AZ,Heber,34.4163,-110.568647
85929,AZ,Lakeside,34.166224,-109.986878
85935,AZ,Pinetop,34.117459,-109.919668
85936,AZ,Saint Johns,34.501008,-109.379617
85937,AZ,Snowflake,34.495859,-110.080742
85938,AZ,Springerville,34.119333,-109.304066
86001,AZ,Flagstaff,35.185911,-111.661979
86021,AZ,Colorado City,36.976266,-112.952427
86022,AZ,Fredonia,36.904397,-112.497864
86025,AZ,Holbrook,34.908451,-110.143412
86030,AZ,Hotevilla,36.211141,-110.566107
86033,AZ,Kayenta,36.688327,-110.265229
86034,AZ,Keams Canyon,35.808206,-110.284461
86035,AZ,Leupp,35.336528,-110.992651
86036,AZ,Marble Canyon,36.956943,-111.558166
86038,AZ,Mormon Lake,34.916896,-111.454914
86039,AZ,Kykotsmovi Villa,35.579084,-110.368805
86040,AZ,Greenehaven,36.896625,-111.43847
86042,AZ,Polacca,35.811812,-110.51114
86043,AZ,Second Mesa,35.903782,-110.6472
86044,AZ,Tonalea,35.934555,-110.882042
86045,AZ,Tuba City,36.103729,-111.268566
86046,AZ,Williams,35.543398,-112.17075
86047,AZ,Winslow,35.16078,-110.511382
86053,AZ,Kaibito,36.484798,-111.136973
86054,AZ,Shonto,36.61594,-110.647743
86301,AZ,Prescott,34.629909,-113.022459
86303,AZ,Groom Creek,34.558577,-112.473459
86314,AZ,Prescott Valley,34.601934,-112.326378
86320,AZ,Ash Fork,35.214998,-112.502681
86321,AZ,Bagdad,34.578484,-113.175535
86322,AZ,Camp Verde,34.569733,-111.855131
86323,AZ,Chino Valley,34.775739,-112.473099
86324,AZ,Clarkdale,34.747793,-112.033417
86325,AZ,Cornville,34.725593,-111.908556
86327,AZ,Dewey,34.536753,-112.256665
86332,AZ,Kirkland,34.454149,-112.896641
86333,AZ,Mayer,34.365535,-112.129551
86334,AZ,Paulden,35.03129,-112.544105
86335,AZ,Rimrock,34.63799,-111.784222
86336,AZ,Sedona,34.826645,-111.750627
86337,AZ,Seligman,35.321246,-112.954805
86343,AZ,Crown King,34.224062,-112.333971
86401,AZ,Kingman,35.258379,-114.05689
86403,AZ,Desert Hills,34.492879,-114.308083
86412,AZ,Hualapai,35.540732,-113.295324
86430,AZ,Bullhead City,35.014832,-114.588816
86432,AZ,Littlefield,36.866524,-113.913693
86434,AZ,Peach Springs,35.537795,-113.420199
86435,AZ,Supai,36.224157,-112.693212
86436,AZ,Topock,34.778388,-114.481666
86440,AZ,Mohave Valley,34.892942,-114.595115
86441,AZ,Dolan Springs,35.774789,-114.547771
86444,AZ,Meadview,35.813733,-114.327696
86502,AZ,Chambers,35.143044,-109.37389
86503,AZ,Chinle,36.130367,-109.603693
86505,AZ,Ganado,35.651844,-109.283168
86507,AZ,Lukachukai,36.418111,-109.244614
86509,AZ,Navajo,34.817202,-109.396217
86510,AZ,Pinon,36.100243,-110.221077
86514,AZ,Teec Nos Pos,36.779694,-109.359039
86535,AZ,Dennehotso,36.777286,-109.861001
86538,AZ,Many Farms,36.408259,-109.634021
86556,AZ,Tsaile,36.307075,-109.217627
71601,AR,North Cedar,34.215405,-91.995812
71602,AR,Dollarway,34.257001,-92.089718
71603,AR,Pine Bluff,34.189745,-92.044786
71630,AR,Arkansas City,33.614328,-91.232529
71635,AR,North,33.152369,-91.959152
71638,AR,Dermott,33.524054,-91.439391
71639,AR,Dumas,33.892102,-91.486056
71640,AR,Eudora,33.12135,-91.271552
71642,AR,Fountain Hill,33.342951,-91.835627
71643,AR,Gould,34.034503,-91.576798
71644,AR,Tamo,34.030484,-91.67082
71646,AR,Hamburg,33.2058,-91.802265
71647,AR,Ingalls,33.422207,-92.127714
71651,AR,Jersey,33.388914,-92.296613
71652,AR,Kingsland,33.86002,-92.301415
71653,AR,Lake Village,33.327408,-91.282487
71654,AR,Mc Gehee,33.62971,-91.392781
71655,AR,Monticello,33.624951,-91.794845
71658,AR,Montrose,33.307516,-91.522776
71660,AR,New Edinburg,33.758846,-92.193909
71661,AR,Parkdale,33.121267,-91.542793
71662,AR,Pickens,33.807923,-91.39157
71663,AR,Portland,33.231773,-91.513935
71665,AR,Rison,33.945325,-92.118762
71666,AR,Rohwer,33.616003,-91.205124
71667,AR,Star City,33.940528,-91.865343
71670,AR,Reed,33.67479,-91.520287
71671,AR,Warren,33.613983,-92.077824
71674,AR,Watson,33.890737,-91.281455
71675,AR,Wilmar,33.621296,-91.925697
71676,AR,Wilmot,33.057557,-91.572283
71677,AR,Winchester,33.752039,-91.543059
71678,AR,Yorktown,34.017166,-91.796472
71701,AR,East Camden,33.575866,-92.833386
71720,AR,Bearden,33.729797,-92.61802
71722,AR,Bluff City,33.698191,-93.186811
71725,AR,Carthage,34.063625,-92.62623
71726,AR,Reader,33.700148,-93.018716
71730,AR,El Dorado,33.20735,-92.662856
71740,AR,Emerson,33.089054,-93.198699
71742,AR,Fordyce,33.817648,-92.422475
71743,AR,Gurdon,33.912493,-93.141691
71744,AR,Hampton,33.537613,-92.52951
71745,AR,Harrell,33.510865,-92.391243
71747,AR,Huttig,33.045888,-92.194153
71748,AR,Ivan,33.902984,-92.439406
71749,AR,Junction City,33.043965,-92.684254
71751,AR,Louann,33.411744,-92.782759
71752,AR,Mc Neil,33.36222,-93.193006
71758,AR,Mount Holly,33.308534,-92.944265
71759,AR,Norphlet,33.309619,-92.657619
71762,AR,Smackover,33.339831,-92.74425
71763,AR,Manning,33.902989,-92.810984
71764,AR,Stephens,33.455044,-93.021391
71765,AR,Strong,33.119526,-92.362104
71766,AR,Thornton,33.767694,-92.468299
71767,AR,Tinsman,33.643436,-92.382192
71769,AR,Village,33.281849,-93.046404
71770,AR,Waldo,33.360017,-93.294915
71801,AR,Perrytown,33.656645,-93.590305
71822,AR,Ashdown,33.678711,-94.135102
71825,AR,Blevins,33.875468,-93.536035
71826,AR,Bradley,33.106963,-93.627496
71827,AR,Buckner,33.375323,-93.446998
71828,AR,Cale,33.616403,-93.26497
71831,AR,Columbus,33.745108,-93.85588
71832,AR,De Queen,34.044206,-94.338559
71833,AR,Dierks,34.13232,-94.015243
71834,AR,Doddridge,33.105448,-93.954307
71835,AR,Emmet,33.692896,-93.423242
71836,AR,Foreman,33.71759,-94.388108
71837,AR,Fouke,33.302476,-93.900953
71839,AR,Garland City,33.335161,-93.731624
71841,AR,Gillham,34.157003,-94.316497
71842,AR,Horatio,33.939221,-94.295942
71845,AR,Lewisville,33.373603,-93.595258
71846,AR,Lockesburg,33.930553,-94.127588
71847,AR,Mc Caskill,33.923042,-93.626605
71851,AR,Mineral Springs,33.863852,-93.918828
71852,AR,Nashville,33.957646,-93.870709
71853,AR,Ogden,33.585706,-94.027826
71855,AR,Ozan,33.902775,-93.771443
71858,AR,Rosston,33.561693,-93.303891
71859,AR,Saratoga,33.759883,-93.876723
71860,AR,Stamps,33.356877,-93.501307
71862,AR,Washington,33.754596,-93.673529
71864,AR,Willisville,33.484731,-93.31212
71865,AR,Wilton,33.734794,-94.135746
71866,AR,Winthrop,33.858321,-94.395174
71901,AR,Lake Catherine,34.501475,-93.026024
71909,AR,Hot Springs Vill,34.65862,-93.006386
71913,AR,Lake Hamilton,34.473304,-93.109177
71921,AR,Amity,34.259362,-93.420551
71922,AR,Antoine,34.028296,-93.437169
71923,AR,Arkadelphia,34.11525,-93.068989
71929,AR,Bismarck,34.311033,-93.187236
71931,AR,Blakely,34.703957,-93.063509
71933,AR,Bonnerdale,34.349751,-93.319415
71935,AR,Caddo Gap,34.397579,-93.586376
71937,AR,Cove,34.419159,-94.39234
71940,AR,Delight,34.023772,-93.524666
71941,AR,Donaldson,34.221221,-92.909384
71942,AR,Friendship,34.241225,-92.980393
71944,AR,Grannis,34.237021,-94.3255
71945,AR,Hatfield,34.487703,-94.371397
71949,AR,Jessieville,34.693729,-93.196318
71950,AR,Kirby,34.255153,-93.616716
71952,AR,Langley,34.314035,-93.850942
71953,AR,Mena,34.581435,-94.220984
71956,AR,Buckville,34.577182,-93.160041
71957,AR,Mount Ida,34.561194,-93.574904
71958,AR,Murfreesboro,34.101734,-93.710903
71959,AR,Newhope,34.227347,-93.890487
71960,AR,Norman,34.459633,-93.674304
71961,AR,Oden,34.611292,-93.821103
71962,AR,Okolona,34.055138,-93.289679
71964,AR,Pearcy,34.435092,-93.242015
71965,AR,Pencil Bluff,34.639946,-93.742947
71968,AR,Royal,34.515049,-93.289734
71969,AR,Sims,34.646181,-93.674071
71970,AR,Story,34.668695,-93.537587
71971,AR,Umpire,34.292129,-94.031377
71972,AR,Vandervoort,34.379535,-94.369788
71973,AR,Wickes,34.308806,-94.340257
72001,AR,Adona,35.046956,-92.903325
72002,AR,Alexander,34.631266,-92.472673
72003,AR,Almyra,34.41459,-91.430992
72004,AR,Altheimer,34.306168,-91.828916
72005,AR,Amagon,35.561559,-91.079636
72006,AR,Augusta,35.278806,-91.352653
72007,AR,Austin,35.028369,-91.959398
72010,AR,Bald Knob,35.311331,-91.550197
72011,AR,Bauxite,34.545537,-92.360531
72012,AR,Beebe,35.093743,-91.907449
72013,AR,Bee Branch,35.423367,-92.408523
72014,AR,Beedeville,35.420267,-91.106371
72016,AR,Bigelow,34.984659,-92.630842
72017,AR,Biscoe,34.833706,-91.490028
72020,AR,Bradford,35.427655,-91.518973
72021,AR,Brinkley,34.878124,-91.188596
72023,AR,Cabot,34.945724,-92.031771
72024,AR,Carlisle,34.793291,-91.745929
72025,AR,Casa,35.032168,-93.047005
72026,AR,Casscoe,34.473625,-91.324798
72027,AR,Center Ridge,35.398063,-92.558167
72028,AR,Choctaw,35.523528,-92.426412
72029,AR,Clarendon,34.660138,-91.256426
72031,AR,Clinton,35.604537,-92.475825
72032,AR,Conway,35.084199,-92.423574
72036,AR,Cotton Plant,35.017827,-91.229043
72038,AR,Crocketts Bluff,34.425272,-91.232079
72039,AR,Twin Groves,35.291042,-92.432952
72040,AR,Des Arc,34.97507,-91.511342
72041,AR,De Valls Bluff,34.744704,-91.498218
72042,AR,De Witt,34.285312,-91.333627
72044,AR,Edgemont,35.623006,-92.199471
72045,AR,El Paso,35.114176,-92.090076
72046,AR,England,34.557458,-91.948422
72047,AR,Enola,35.208705,-92.212328
72048,AR,Ethel,34.243525,-91.139839
72051,AR,Fox,35.768208,-92.304266
72052,AR,Garner,35.130305,-91.742884
72055,AR,Gillett,34.121838,-91.380048
72057,AR,Grapevine,34.130893,-92.310944
72058,AR,Greenbrier,35.229547,-92.357792
72060,AR,Griffithville,35.114383,-91.624234
72061,AR,Guy,35.318487,-92.331539
72063,AR,Hattieville,35.290713,-92.778317
72064,AR,Hazen,34.783833,-91.576699
72065,AR,Hensley,34.591133,-92.214019
72066,AR,Hickory Plains,34.978642,-91.750844
72067,AR,Greers Ferry,35.549812,-92.182284
72068,AR,Higginson,35.188254,-91.71828
72069,AR,Holly Grove,34.599294,-91.184376
72072,AR,Humnoke,34.541896,-91.756616
72073,AR,Humphrey,34.403387,-91.67896
72076,AR,Gravel Ridge,34.881985,-92.130435
72079,AR,Jefferson,34.355285,-92.148574
72080,AR,Jerusalem,35.37975,-92.813886
72081,AR,Judsonia,35.324954,-91.649087
72082,AR,Kensett,35.229939,-91.669672
72083,AR,Keo,34.604072,-92.007844
72084,AR,Leola,34.185605,-92.597865
72086,AR,Lonoke,34.783162,-91.921367
72087,AR,Lonsdale,34.556203,-92.834034
72101,AR,Mc Crory,35.247292,-91.179327
72102,AR,Mc Rae,35.11322,-91.821551
72103,AR,Shannon Hills,34.621756,-92.384618
72105,AR,Jones Mills,34.453624,-92.861975
72106,AR,Mayflower,34.966853,-92.400102
72110,AR,Morrilton,35.169227,-92.735436
72112,AR,Newport,35.598823,-91.257064
72113,AR,Maumelle,34.849085,-92.405892
72114,AR,North Little Roc,34.766974,-92.265376
72116,AR,Sherwood,34.807629,-92.237359
72118,AR,Camp Joseph T Ro,34.821598,-92.307875
72121,AR,Pangburn,35.421583,-91.795971
72122,AR,Paron,34.785289,-92.748176
72125,AR,Perry,35.042732,-92.787976
72127,AR,Plumerville,35.157466,-92.620435
72128,AR,Poyen,34.350828,-92.599037
72129,AR,Prattsville,34.307865,-92.513105
72130,AR,Prim,35.685733,-92.134596
72131,AR,Quitman,35.404988,-92.133334
72132,AR,Redfield,34.452647,-92.17579
72133,AR,Reydell,34.143281,-91.550395
72134,AR,Roe,34.628592,-91.377058
72135,AR,Roland,34.88287,-92.519152
72136,AR,Romance,35.215462,-92.06985
72137,AR,Rose Bud,35.321447,-92.061988
72140,AR,Saint Charles,34.335296,-91.16808
72141,AR,Scotland,35.507956,-92.586652
72142,AR,Scott,34.694215,-92.11566
72143,AR,Georgetown,35.253512,-91.762931
72150,AR,Sheridan,34.316527,-92.365713
72152,AR,Sherrill,34.358148,-91.993285
72153,AR,Shirley,35.573259,-92.29751
72156,AR,Solgohachia,35.270056,-92.675387
72157,AR,Springfield,35.274879,-92.54567
72160,AR,Stuttgart,34.485358,-91.548742
72165,AR,Thida,35.553556,-91.461823
72166,AR,Tichnor,34.089311,-91.243684
72167,AR,Traskwood,34.450791,-92.654734
72168,AR,Tucker,34.441442,-91.916265
72170,AR,Ulm,34.579938,-91.51343
72173,AR,Vilonia,35.071895,-92.183235
72175,AR,Wabbaseka,34.393552,-91.754948
72179,AR,Wilburn,35.454547,-91.907248
72181,AR,Wooster,35.197308,-92.450998
72182,AR,Wright,34.437656,-92.06308
72201,AR,Little Rock,34.748342,-92.281939
72208,AR,Ferndale,34.781575,-92.585581
72301,AR,West Memphis,35.148442,-90.17792
72310,AR,Armorel,35.942843,-89.758118
72311,AR,Aubrey,34.702727,-90.911331
72313,AR,Bassett,35.513808,-90.192155
72314,AR,Birdeye,35.409571,-90.67074
72315,AR,Blytheville A F,35.934482,-89.922497
72320,AR,Brickeys,34.854814,-90.537738
72321,AR,Burdette,35.814769,-89.942312
72324,AR,Cherry Valley,35.399122,-90.761329
72326,AR,Colt,35.096062,-90.787204
72327,AR,Crawfordsville,35.211873,-90.335107
72328,AR,Crumrod,34.216167,-90.949535
72329,AR,Driver,35.559714,-89.960526
72330,AR,Dyess,35.595394,-90.215716
72331,AR,Earle,35.27989,-90.450261
72332,AR,Edmondson,35.022309,-90.328672
72333,AR,Elaine,34.308668,-90.873485
72335,AR,Forrest City,35.009129,-90.788572
72338,AR,Frenchmans Bayou,35.478419,-90.055933
72339,AR,Gilmore,35.386408,-90.264664
72340,AR,Goodwin,34.959149,-90.983518
72341,AR,Haynes,34.883752,-90.766621
72346,AR,Heth,35.097335,-90.458554
72347,AR,Hickory Ridge,35.399457,-90.982283
72350,AR,Joiner,35.505239,-90.14779
72351,AR,Keiser,35.678626,-90.096171
72354,AR,Lepanto,35.606909,-90.335883
72355,AR,Lexa,34.672694,-90.78532
72358,AR,Luxora,35.760786,-89.92204
72360,AR,Marianna,34.775929,-90.77852
72365,AR,Marked Tree,35.534933,-90.419387
72366,AR,Marvell,34.548541,-90.941322
72367,AR,Mellwood,34.220032,-91.008589
72368,AR,Moro,34.802953,-91.006026
72369,AR,Oneida,34.405267,-90.826045
72370,AR,Osceola,35.701864,-89.979764
72372,AR,Palestine,34.966346,-90.904929
72373,AR,Parkin,35.258557,-90.556417
72374,AR,Poplar Grove,34.539397,-90.881274
72376,AR,Proctor,35.083396,-90.255026
72379,AR,Snow Lake,34.066466,-91.007083
72381,AR,Tomato,35.806666,-89.787092
72384,AR,Turrell,35.296936,-90.262979
72386,AR,Tyronza,35.486477,-90.351944
72390,AR,West Helena,34.549635,-90.654531
72392,AR,Wheatley,34.920703,-91.108645
72394,AR,Widener,35.059167,-90.629313
72395,AR,Wilson,35.566004,-90.042749
72396,AR,Wynne,35.233036,-90.79303
72397,AR,Fair Oaks,35.236817,-91.014304
72401,AR,Jonesboro,35.833016,-90.696526
72410,AR,Alicia,35.942327,-91.081003
72411,AR,Bay,35.74559,-90.550658
72412,AR,Beech Grove,36.183172,-90.618084
72413,AR,Biggers,36.342978,-90.784467
72414,AR,Black Oak,35.835851,-90.354227
72415,AR,Black Rock,36.114874,-91.117629
72416,AR,Bono,35.908592,-90.784753
72417,AR,Brookland,35.91647,-90.576228
72419,AR,Caraway,35.758951,-90.335797
72421,AR,Cash,35.830145,-90.941007
72422,AR,Corning,36.415532,-90.58702
72424,AR,Datto,36.389685,-90.723117
72425,AR,Delaplaine,36.199485,-90.734482
72426,AR,Dell,35.850118,-90.035449
72428,AR,Etowah,35.714707,-90.218172
72429,AR,Fisher,35.513956,-90.955001
72430,AR,Greenway,36.334766,-90.225257
72432,AR,Harrisburg,35.572222,-90.703752
72433,AR,Hoxie,36.032573,-90.971504
72434,AR,Imboden,36.19763,-91.185442
72435,AR,Knobel,36.317647,-90.599048
72436,AR,Lafe,36.21547,-90.506973
72437,AR,Lake City,35.81715,-90.442327
72438,AR,Leachville,35.933216,-90.195488
72441,AR,Mc Dougal,36.379909,-90.394093
72442,AR,Roseland,35.874885,-90.180252
72443,AR,Marmaduke,36.195117,-90.38368
72444,AR,Maynard,36.438563,-90.874921
72445,AR,Minturn,35.976096,-91.033704
72447,AR,Monette,35.900168,-90.343658
72449,AR,O Kean,36.179672,-90.824069
72450,AR,Paragould,36.060033,-90.525093
72453,AR,Peach Orchard,36.283045,-90.670217
72454,AR,Piggott,36.386993,-90.19261
72455,AR,Pocahontas,36.282876,-90.996782
72456,AR,Pollard,36.431725,-90.275123
72457,AR,Portia,36.080699,-91.068004
72458,AR,Powhatan,36.080044,-91.148214
72459,AR,Ravenden,36.202863,-91.25934
72460,AR,Ravenden Springs,36.310384,-91.209433
72461,AR,Rector,36.267177,-90.270201
72464,AR,Saint Francis,36.454771,-90.144991
72465,AR,Sedgwick,35.985965,-90.880099
72466,AR,Smithville,36.090815,-91.274456
72467,AR,State University,35.914894,-90.454245
72469,AR,Calamine,35.972622,-91.375398
72470,AR,Success,36.453615,-90.728128
72471,AR,Swifton,35.827366,-91.126358
72472,AR,Payneway,35.668914,-90.518738
72473,AR,Tuckerman,35.730678,-91.200347
72476,AR,College City,36.077814,-90.952809
72478,AR,Warm Springs,36.467531,-91.038707
72479,AR,Weiner,35.629052,-90.928928
72482,AR,Williford,36.245335,-91.379226
72501,AR,Batesville,35.782614,-91.63519
72512,AR,Horseshoe Bend,36.202502,-91.755334
72513,AR,Agnos,36.219732,-91.610746
72515,AR,Bexar,36.306103,-91.985998
72516,AR,Boswell,36.01084,-92.044307
72517,AR,Brockwell,36.135755,-91.951308
72519,AR,Jordan,36.144771,-92.145494
72520,AR,Camp,36.402531,-91.726166
72521,AR,Cave City,35.951684,-91.544432
72522,AR,Charlotte,35.833393,-91.396217
72523,AR,Concord,35.641355,-91.833339
72524,AR,Cord,35.81844,-91.337455
72526,AR,Cushman,35.869663,-91.776455
72527,AR,Desha,35.731524,-91.678287
72528,AR,Dolph,36.222878,-92.11766
72529,AR,Cherokee Village,36.30114,-91.528075
72530,AR,Drasco,35.661606,-91.939818
72531,AR,Elizabeth,36.323776,-92.093366
72532,AR,Evening Shade,36.085532,-91.598014
72533,AR,Fifty Six,35.991958,-92.218169
72534,AR,Floral,35.602337,-91.734101
72537,AR,Gamaliel,36.461794,-92.228447
72538,AR,Gepp,36.436443,-92.099507
72540,AR,Guion,35.960135,-91.934287
72542,AR,Hardy,36.322746,-91.411027
72543,AR,Heber Springs,35.510278,-92.039211
72544,AR,Henderson,36.356829,-92.269253
72546,AR,Ida,35.594326,-91.930081
72550,AR,Locust Grove,35.717705,-91.741443
72553,AR,Magness,35.710062,-91.485041
72554,AR,Mammoth Spring,36.407648,-91.575712
72555,AR,Marcella,35.749654,-91.941891
72556,AR,Zion,36.059958,-91.905196
72557,AR,Moko,36.468902,-91.858663
72560,AR,Hanover,35.865769,-92.114762
72561,AR,Mount Pleasant,35.975909,-91.785013
72562,AR,Newark,35.71183,-91.439395
72564,AR,Oil Trough,35.613147,-91.470305
72566,AR,Pineville,36.167704,-92.107299
72568,AR,Pleasant Plains,35.589301,-91.632043
72569,AR,Poughkeepsie,36.071526,-91.451575
72571,AR,Rosie,35.663816,-91.534003
72572,AR,Saffell,35.917957,-91.297753
72573,AR,Sage,36.042476,-91.824569
72575,AR,Salado,35.703493,-91.597924
72576,AR,Byron,36.365401,-91.836321
72577,AR,Sidney,35.991554,-91.634593
72578,AR,Sturkie,36.463869,-91.989917
72579,AR,Sulphur Rock,35.754466,-91.507333
72581,AR,Tumbling Shoals,35.546985,-91.970359
72583,AR,Viola,36.392429,-91.993198
72584,AR,Violet Hill,36.162966,-91.847064
72585,AR,Wideman,36.198739,-92.001796
72587,AR,Wiseman,36.228022,-91.849499
72601,AR,Harrison,36.241707,-93.106162
72610,AR,Alco,35.894511,-92.380753
72611,AR,Alpena,36.299768,-93.2792
72612,AR,Bass,35.892225,-92.999832
72616,AR,Berryville,36.351908,-93.558725
72617,AR,Big Flat,36.006824,-92.391681
72618,AR,Bruno,36.124617,-92.763651
72619,AR,Bull Shoals,36.370958,-92.593765
72623,AR,Clarkridge,36.443311,-92.35159
72624,AR,Compton,36.097941,-93.309903
72626,AR,Cotter,36.280378,-92.532787
72628,AR,Deer,35.852982,-93.317388
72629,AR,Dennard,35.725236,-92.557456
72632,AR,Eureka Springs,36.417465,-93.737915
72633,AR,Everton,36.153366,-92.914989
72634,AR,Flippin,36.268219,-92.577995
72635,AR,Gassville,36.317525,-92.473637
72638,AR,Green Forest,36.322408,-93.405875
72639,AR,Harriet,35.974187,-92.50055
72640,AR,Hasty,36.015229,-93.045966
72642,AR,Lakeview,36.397308,-92.504416
72644,AR,Lead Hill,36.430886,-92.930194
72645,AR,Leslie,35.82716,-92.566293
72648,AR,Dogpatch,36.095121,-93.144822
72653,AR,Mountain Home,36.331153,-92.375337
72655,AR,Mount Judea,35.834674,-93.082391
72657,AR,Timbo,35.896338,-92.252536
72658,AR,Norfork,36.206571,-92.273011
72660,AR,Oak Grove,36.461347,-93.432129
72661,AR,Oakland,36.444227,-92.583187
72662,AR,Omaha,36.46123,-93.188753
72663,AR,Onia,35.940339,-92.345859
72666,AR,Parthenon,35.940836,-93.267776
72668,AR,Peel,36.444374,-92.776143
72669,AR,Pindall,36.067479,-92.886409
72670,AR,Ponca,36.066225,-93.401985
72675,AR,Saint Joe,35.987707,-92.792828
72679,AR,Tilly,35.6976,-92.844209
72680,AR,Newnata,35.855318,-92.337929
72682,AR,Valley Springs,36.146823,-92.979937
72683,AR,Vendor,35.948062,-93.100815
72685,AR,Western Grove,36.082994,-92.971649
72686,AR,Witts Springs,35.785514,-92.815518
72687,AR,Yellville,36.225322,-92.724472
72701,AR,Fayetteville,36.052045,-94.153395
72712,AR,Bentonville,36.357703,-94.22242
72714,AR,Bella Vista,36.465086,-94.251969
72716,AR,Wal-Mart Inc,36.326554,-94.181483
72717,AR,Canehill,35.910992,-94.3862
72718,AR,Cave Springs,36.266771,-94.207836
72719,AR,Centerton,36.366993,-94.30891
72721,AR,Combs,35.848297,-93.825218
72727,AR,Elkins,36.017719,-94.007323
72729,AR,Evansville,35.819345,-94.478936
72730,AR,Farmington,36.043635,-94.253871
72732,AR,Garfield,36.428817,-93.951197
72733,AR,Gateway,36.485751,-93.935016
72734,AR,Gentry,36.26516,-94.475131
72736,AR,Gravette,36.415513,-94.477862
72738,AR,Hindsville,36.142206,-93.863339
72739,AR,Hiwasse,36.441589,-94.338993
72742,AR,Kingston,36.04845,-93.504357
72745,AR,Lowell,36.243318,-94.082725
72747,AR,Maysville,36.401062,-94.581278
72749,AR,Morrow,35.85373,-94.425793
72751,AR,Pea Ridge,36.453884,-94.118026
72752,AR,Pettigrew,35.834562,-93.618079
72753,AR,Prairie Grove,35.991809,-94.316861
72756,AR,Rogers,36.336316,-94.114784
72760,AR,Saint Paul,35.849576,-93.734743
72761,AR,Siloam Springs,36.179969,-94.528036
72762,AR,Springdale,36.183521,-94.176216
72764,AR,Bethel Heights,36.177918,-94.104682
72768,AR,Sulphur Springs,36.479434,-94.452069
72769,AR,Summers,36.013827,-94.500027
72773,AR,Wesley,35.957264,-93.911478
72774,AR,West Fork,35.908153,-94.230375
72776,AR,Witter,35.935583,-93.621
72820,AR,Alix,35.430767,-93.726416
72821,AR,Altus,35.404873,-93.811494
72823,AR,Atkins,35.244948,-92.950696
72824,AR,Belleville,35.103762,-93.451817
72826,AR,Blue Mountain,35.130386,-93.716797
72827,AR,Bluffton,34.901635,-93.591946
72828,AR,Briggsville,34.916065,-93.515748
72830,AR,Clarksville,35.490763,-93.491056
72832,AR,Coal Hill,35.437117,-93.67203
72834,AR,Dardanelle,35.195507,-93.187316
72835,AR,Delaware,35.278005,-93.346152
72837,AR,Dover,35.407356,-93.135526
72838,AR,Gravelly,34.888123,-93.680249
72839,AR,Hagarville,35.523291,-93.344256
72840,AR,Hartman,35.443583,-93.614196
72841,AR,Harvey,34.867912,-93.752538
72842,AR,Waveland,35.111845,-93.576719
72843,AR,Hector,35.40574,-92.965559
72846,AR,Lamar,35.434868,-93.355157
72847,AR,London,35.337017,-93.238907
72851,AR,New Blaine,35.318912,-93.44457
72852,AR,Oark,35.709454,-93.558531
72853,AR,Ola,35.03091,-93.21356
72854,AR,Ozone,35.657478,-93.43111
72855,AR,Paris,35.294149,-93.726469
72856,AR,Pelsor,35.691158,-93.016088
72857,AR,Plainview,34.966793,-93.309897
72858,AR,Pottsville,35.239785,-93.056386
72860,AR,Rover,34.947522,-93.401728
72863,AR,Scranton,35.330816,-93.539362
72865,AR,Subiaco,35.31346,-93.63869
72901,AR,Fort Smith,35.365272,-94.411035
72905,AR,Fort Chaffee,35.297366,-94.340521
72921,AR,Alma,35.500043,-94.207337
72923,AR,Barling,35.332963,-94.308226
72924,AR,Bates,34.909295,-94.393155
72926,AR,Boles,34.765363,-94.062864
72927,AR,Booneville,35.136385,-93.927433
72928,AR,Branch,35.297055,-93.94537
72932,AR,Cedarville,35.590231,-94.344618
72933,AR,Charleston,35.311502,-94.03368
72934,AR,Chester,35.689776,-94.202026
72936,AR,Greenwood,35.195476,-94.253027
72937,AR,Hackett,35.194476,-94.398328
72940,AR,Huntington,35.096267,-94.331283
72941,AR,Central City,35.337513,-94.165637
72943,AR,Magazine,35.15873,-93.800336
72944,AR,Mansfield,35.0432,-94.22036
72946,AR,Mountainburg,35.570027,-94.109094
72947,AR,Mulberry,35.517246,-93.988505
72948,AR,Natural Dam,35.674259,-94.412377
72950,AR,Parks,34.800333,-93.950913
72951,AR,Ratcliff,35.276032,-93.842149
72952,AR,Rudy,35.539805,-94.237376
72956,AR,Van Buren,35.453989,-94.327762
72958,AR,Waldron,34.902642,-94.077243
75502,AR,Texarkana,33.432644,-94.011281
90001,CA,Los Angeles,33.973093,-118.247896
90022,CA,East Los Angeles,34.023638,-118.155319
90040,CA,City Of Commerce,33.99471,-118.151352
90046,CA,Cole,34.09743,-118.357979
90063,CA,Hazard,34.044017,-118.185432
90069,CA,West Hollywood,34.090573,-118.378753
90201,CA,Bell Gardens,33.969177,-118.17205
90210,CA,Beverly Hills,34.090107,-118.406477
90220,CA,Rancho Dominguez,33.890654,-118.239044
90221,CA,East Rancho Domi,33.897324,-118.203724
90222,CA,Rosewood,33.911535,-118.234034
90230,CA,Culver City,33.994927,-118.399115
90240,CA,Downey,33.958135,-118.117381
90245,CA,El Segundo,33.924275,-118.411924
90247,CA,Gardena,33.892463,-118.296122
90250,CA,Holly Park,33.913214,-118.346978
90254,CA,Hermosa Beach,33.864309,-118.395511
90255,CA,Huntington Park,33.976879,-118.216053
90260,CA,Lawndale,33.887908,-118.351014
90262,CA,Lynwood,33.924076,-118.201289
90265,CA,Malibu,34.040184,-118.735149
90266,CA,Manhattan Beach,33.889594,-118.399562
90270,CA,Maywood,33.988992,-118.187685
90272,CA,Pacific Palisade,34.054097,-118.536874
90274,CA,Palos Verdes Est,33.770094,-118.374763
90277,CA,Redondo Beach,33.830656,-118.383221
90280,CA,South Gate,33.94617,-118.201349
90290,CA,Topanga,34.10759,-118.602268
90291,CA,Venice,33.993772,-118.463463
90292,CA,Marina Del Rey,33.977876,-118.452475
90293,CA,Playa Del Rey,33.957745,-118.437314
90301,CA,Inglewood,33.955048,-118.355575
90304,CA,Lennox,33.938514,-118.355562
90401,CA,Santa Monica,34.017628,-118.490708
90501,CA,Torrance,33.826817,-118.31183
90601,CA,Whittier,34.001119,-118.037139
90606,CA,Los Nietos,33.977019,-118.065639
90620,CA,Buena Park,33.840607,-118.011359
90623,CA,Cerritos,33.849017,-118.040618
90631,CA,La Habra Heights,33.932173,-117.949703
90638,CA,La Mirada,33.906681,-118.010081
90640,CA,Montebello,34.013342,-118.112986
90650,CA,Norwalk,33.90564,-118.081767
90660,CA,Pico Rivera,33.98857,-118.088269
90670,CA,Santa Fe Springs,33.946407,-118.083801
90704,CA,Avalon,33.331963,-118.343706
90706,CA,Bellflower,33.886676,-118.126527
90710,CA,Harbor City,33.797006,-118.299114
90712,CA,Lakewood,33.851201,-118.145727
90716,CA,Hawaiian Gardens,33.82958,-118.072964
90717,CA,Rancho Palos Ver,33.793339,-118.31693
90720,CA,Rossmoor,33.795291,-118.069891
90723,CA,Paramount,33.896867,-118.163152
90731,CA,San Pedro,33.733894,-118.291425
90740,CA,Seal Beach,33.760971,-118.08428
90744,CA,Wilmington,33.785475,-118.264451
90745,CA,Carson,33.822968,-118.268352
90802,CA,Long Beach,33.770553,-118.182025
90804,CA,Signal Hill,33.782993,-118.155187
91001,CA,Altadena,34.191187,-118.13919
91006,CA,Arcadia,34.132389,-118.026374
91010,CA,Bradbury,34.137445,-117.967005
91011,CA,Flintridge,34.209282,-118.199008
91016,CA,Monrovia,34.143959,-118.001376
91024,CA,Sierra Madre,34.165101,-118.051916
91030,CA,South Pasadena,34.110939,-118.154696
91040,CA,Shadow Hills,34.261025,-118.321359
91042,CA,Tujunga,34.254389,-118.284856
91101,CA,Pasadena,34.146762,-118.139119
91108,CA,San Marino,34.120698,-118.111745
91214,CA,La Crescenta,34.231619,-118.245687
91301,CA,Oak Park,34.157163,-118.75718
91302,CA,Calabasas,34.141854,-118.664103
91303,CA,Canoga Park,34.199257,-118.59828
91306,CA,Winnetka,34.2092,-118.57492
91307,CA,West Hills,34.196343,-118.638892
91311,CA,Chatsworth,34.258253,-118.591357
91316,CA,Encino,34.165479,-118.517542
91320,CA,Newbury Park,34.177393,-118.935798
91321,CA,Newhall,34.379519,-118.523005
91324,CA,Northridge,34.236743,-118.546595
91326,CA,Porter Ranch,34.274191,-118.541235
91330,CA,California State,34.23805,-118.528634
91331,CA,Arleta,34.258081,-118.420692
91335,CA,Reseda,34.200663,-118.539071
91340,CA,San Fernando,34.287509,-118.435242
91342,CA,Sylmar,34.30538,-118.432181
91343,CA,North Hills,34.236636,-118.47582
91344,CA,Granada Hills,34.277068,-118.4992
91345,CA,Mission Hills,34.261873,-118.458659
91350,CA,Agua Dulce,34.459742,-118.488955
91351,CA,Canyon Country,34.426203,-118.449011
91352,CA,Sun Valley,34.220907,-118.369853
91354,CA,Valencia,34.446608,-118.537437
91356,CA,Tarzana,34.16708,-118.541354
91360,CA,Thousand Oaks,34.209179,-118.873908
91361,CA,Westlake Village,34.147233,-118.83832
91364,CA,Woodland Hills,34.155652,-118.600019
91384,CA,Castaic,34.482695,-118.62537
91401,CA,Van Nuys,34.180152,-118.432375
91402,CA,Panorama City,34.226158,-118.447009
91403,CA,Sherman Oaks,34.151407,-118.460325
91501,CA,Burbank,34.186238,-118.300898
91601,CA,North Hollywood,34.16867,-118.371274
91602,CA,Toluca Lake,34.151095,-118.367606
91604,CA,Studio City,34.143025,-118.391311
91607,CA,Valley Village,34.167217,-118.398905
91701,CA,Alta Loma,34.133922,-117.599149
91702,CA,Azusa,34.12476,-117.903083
91706,CA,Irwindale,34.084245,-117.969539
91709,CA,Chino Hills,33.979735,-117.730791
91710,CA,Chino,34.012532,-117.684401
91711,CA,Claremont,34.109167,-117.718293
91719,CA,Corona,33.861839,-117.531916
91722,CA,Covina,34.097162,-117.906544
91730,CA,Rancho Cucamonga,34.107039,-117.59408
91731,CA,El Monte,34.079142,-118.037108
91733,CA,South El Monte,34.055676,-118.044381
91739,CA,Etiwanda,34.119873,-117.519329
91740,CA,Glendora,34.128663,-117.855155
91744,CA,Industry,34.029428,-117.934098
91745,CA,Hacienda Heights,33.997741,-117.965205
91748,CA,Rowland Heights,33.981777,-117.896946
91750,CA,La Verne,34.115905,-117.77077
91752,CA,Mira Loma,33.993845,-117.523574
91754,CA,Monterey Park,34.053409,-118.127144
91759,CA,Mt Baldy,34.218082,-117.580219
91760,CA,Norco,33.927983,-117.557866
91761,CA,Ontario,34.031647,-117.618662
91763,CA,Montclair,34.073298,-117.698669
91765,CA,Diamond Bar,34.006585,-117.809822
91766,CA,Phillips Ranch,34.043268,-117.752086
91767,CA,Pomona,34.081187,-117.736171
91770,CA,Rosemead,34.065767,-118.08529
91773,CA,San Dimas,34.102263,-117.81694
91775,CA,San Gabriel,34.115486,-118.085658
91780,CA,Temple City,34.101586,-118.053652
91786,CA,Upland,34.114432,-117.658336
91790,CA,West Covina,34.067336,-117.936643
91801,CA,Alhambra,34.091436,-118.129288
91902,CA,Bonita,32.667143,-117.022065
91905,CA,Boulevard,32.671934,-116.319982
91906,CA,Campo,32.660491,-116.490459
91910,CA,Chula Vista,32.637139,-117.06756
91916,CA,Descanso,32.872971,-116.602732
91917,CA,Dulzura,32.615172,-116.728523
91932,CA,Imperial Beach,32.578289,-117.11478
91934,CA,Jacumba,32.624934,-116.195184
91935,CA,Jamul,32.716289,-116.832332
91941,CA,La Mesa,32.760431,-117.011541
91945,CA,Lemon Grove,32.73323,-117.032646
91950,CA,National City,32.674916,-117.089747
91962,CA,Pine Valley,32.835047,-116.512733
91963,CA,Potrero,32.620477,-116.603748
91977,CA,Spring Valley,32.724014,-116.997644
91980,CA,Tecate,32.592205,-116.606397
92003,CA,Bonsall,33.294033,-117.18969
92004,CA,Borrego Springs,33.238649,-116.351394
92007,CA,Cardiff By The S,33.025265,-117.274371
92008,CA,Carlsbad,33.160241,-117.324998
92014,CA,Del Mar,32.971474,-117.237314
92019,CA,El Cajon,32.777726,-116.919055
92024,CA,Encinitas,33.053469,-117.26891
92025,CA,Escondido,33.110117,-117.069987
92028,CA,Fallbrook,33.369015,-117.228952
92036,CA,Julian,33.053355,-116.565812
92037,CA,La Jolla,32.845488,-117.25208
92054,CA,Oceanside,33.20723,-117.357294
92055,CA,Marine Corp Base,33.327929,-117.409452
92059,CA,Pala,33.377662,-117.071725
92061,CA,Pauma Valley,33.306285,-116.959552
92064,CA,Poway,32.975619,-117.040223
92065,CA,Ramona,33.029349,-116.853548
92066,CA,Ranchita,33.24055,-116.539121
92068,CA,San Luis Rey,33.294367,-117.306403
92069,CA,San Marcos,33.144386,-117.169716
92070,CA,Santa Ysabel,33.147579,-116.69635
92071,CA,Santee,32.848636,-116.986154
92075,CA,Solana Beach,32.993739,-117.2598
92082,CA,Valley Center,33.249046,-117.012232
92083,CA,Vista,33.187296,-117.245854
92086,CA,Warner Springs,33.303666,-116.721385
92101,CA,San Diego,32.71852,-117.159316
92118,CA,Coronado,32.68069,-117.169823
92173,CA,San Ysidro,32.562567,-117.042976
92201,CA,Chiriaco Summit,33.721899,-116.235729
92210,CA,Indian Wells,33.716334,-116.338129
92220,CA,Banning,33.92816,-116.889928
92223,CA,Beaumont,33.950429,-116.970079
92225,CA,Lost Lake,33.605715,-114.597131
92227,CA,Brawley,32.979181,-115.529613
92230,CA,Cabazon,33.908583,-116.773948
92231,CA,Calexico,32.683227,-115.502815
92233,CA,Calipatria,33.166956,-115.511402
92234,CA,Cathedral City,33.809839,-116.466497
92236,CA,Coachella,33.674965,-116.177231
92239,CA,Eagle Mountain,33.604941,-115.052603
92240,CA,Desert Hot Sprin,33.904973,-116.366222
92242,CA,Big River,34.149142,-114.33928
92243,CA,El Centro,32.789332,-115.566508
92250,CA,Holtville,32.810387,-115.377456
92251,CA,Imperial,32.846954,-115.572984
92252,CA,Joshua Tree,34.150163,-116.303763
92253,CA,La Quinta,33.668474,-116.308081
92256,CA,Morongo Valley,34.060646,-116.565641
92257,CA,Niland,33.378373,-115.696455
92260,CA,Palm City,33.730842,-116.366442
92262,CA,Palm Springs,33.841406,-116.53466
92267,CA,Parker Dam,34.297977,-114.155969
92270,CA,Rancho Mirage,33.764284,-116.422451
92272,CA,Blythe,33.951256,-116.495855
92274,CA,Salton City,33.543418,-116.11584
92276,CA,Thousand Palms,33.808158,-116.371305
92277,CA,Twentynine Palms,34.145509,-116.060133
92280,CA,Vidal,34.156109,-114.565602
92281,CA,Westmorland,33.041058,-115.630723
92282,CA,White Water,33.927591,-116.693154
92283,CA,Felicity,32.832922,-114.636634
92284,CA,Yucca Valley,34.155936,-116.431313
92301,CA,Adelanto,34.584128,-117.424189
92304,CA,Amboy,34.599012,-115.774907
92305,CA,Angelus Oaks,34.153149,-116.948482
92307,CA,Apple Valley,34.529081,-117.2132
92309,CA,Baker,35.360573,-116.063754
92310,CA,Fort Irwin,35.40148,-116.644759
92311,CA,Barstow,34.89145,-117.038702
92314,CA,Big Bear City,34.242233,-116.920412
92316,CA,Bloomington,34.066198,-117.399295
92320,CA,Calimesa,33.994586,-117.04304
92324,CA,Grand Terrace,34.057964,-117.318577
92327,CA,Daggett,34.86677,-116.887555
92328,CA,Death Valley,36.467165,-116.893682
92332,CA,Essex,34.560626,-115.280344
92335,CA,Fontana,34.079351,-117.455114
92338,CA,Ludlow,34.901779,-116.386202
92339,CA,Forest Falls,34.08805,-116.914147
92342,CA,Helendale,34.749859,-117.33666
92345,CA,Hesperia,34.422215,-117.302527
92346,CA,East Highland,34.126969,-117.208717
92347,CA,Hinkley,34.92788,-117.180867
92351,CA,Kelso,34.9678,-115.577574
92354,CA,Loma Linda,34.052833,-117.251286
92356,CA,Lucerne Valley,34.44695,-116.918857
92358,CA,Lytle Creek,34.255755,-117.518613
92363,CA,Needles,34.782369,-114.587134
92364,CA,Nipton,35.46761,-115.481436
92365,CA,Newberry Springs,34.885001,-116.746373
92368,CA,Oro Grande,34.617832,-117.332733
92371,CA,Phelan,34.444901,-117.519604
92372,CA,Pinon Hills,34.442937,-117.640262
92373,CA,Redlands,34.039659,-117.180352
92376,CA,Rialto,34.113155,-117.377133
92384,CA,Shoshone,35.899239,-116.264476
92389,CA,Tecopa,35.897925,-115.829824
92392,CA,Spring Valley La,34.503917,-117.319235
92394,CA,George Afb,34.577325,-117.363516
92397,CA,Wrightwood,34.362839,-117.6249
92399,CA,Yucaipa,34.028197,-117.048925
92401,CA,San Bernardino,34.110521,-117.289753
92405,CA,Muscoy,34.144101,-117.310765
92509,CA,Rubidoux,33.997355,-117.444896
92530,CA,Lake Elsinore,33.659816,-117.348535
92536,CA,Aguanga,33.447306,-116.799693
92539,CA,Anza,33.568812,-116.71355
92543,CA,Hemet,33.741613,-116.972974
92548,CA,Homeland,33.74528,-117.111845
92549,CA,Idyllwild,33.730433,-116.710665
92553,CA,Moreno Valley,33.915719,-117.235066
92561,CA,Mountain Center,33.531667,-116.581954
92562,CA,Murrieta,33.563071,-117.273838
92570,CA,Mead Valley,33.797535,-117.280005
92571,CA,Perris,33.810979,-117.217968
92582,CA,San Jacinto,33.788281,-116.981911
92583,CA,Gilman Hot Sprin,33.78604,-116.955201
92584,CA,Menifee,33.664744,-117.1743
92585,CA,Romoland,33.744518,-117.171899
92587,CA,Canyon Lake,33.688756,-117.252653
92590,CA,Temecula,33.490269,-117.182437
92595,CA,Wildomar,33.602115,-117.263953
92610,CA,Foothill Ranch,33.666822,-117.664995
92621,CA,Brea,33.922897,-117.886742
92624,CA,Capistrano Beach,33.459115,-117.662657
92625,CA,Corona Del Mar,33.602066,-117.874331
92626,CA,Costa Mesa,33.677711,-117.909623
92629,CA,Monarch Bay,33.476964,-117.700483
92630,CA,Lake Forest,33.640015,-117.68819
92631,CA,Fullerton,33.880519,-117.89157
92640,CA,Garden Grove,33.785826,-117.92906
92646,CA,Huntington Beach,33.668448,-117.967771
92651,CA,Laguna Niguel,33.542927,-117.772351
92653,CA,Laguna Hills,33.60028,-117.70854
92655,CA,Midway City,33.744794,-117.983539
92656,CA,Aliso Viejo,33.572367,-117.708906
92657,CA,Newport Beach,33.596382,-117.855317
92665,CA,Orange,33.83096,-117.844903
92667,CA,Villa Park,33.81036,-117.828421
92670,CA,Placentia,33.880323,-117.859837
92672,CA,San Clemente,33.430809,-117.610139
92675,CA,Mission Viejo,33.511714,-117.657409
92679,CA,Coto De Caza,33.634576,-117.577709
92680,CA,Tustin,33.73713,-117.819193
92683,CA,Westminster,33.752756,-117.991312
92686,CA,Yorba Linda,33.888361,-117.799619
92688,CA,Rancho Santa Mar,33.651822,-117.588388
92701,CA,Santa Ana,33.75016,-117.857665
92705,CA,Cowan Heights,33.74866,-117.768902
92707,CA,Santa Ana Height,33.715938,-117.870346
92708,CA,Fountain Valley,33.710762,-117.952318
92709,CA,El Toro Marine C,33.681287,-117.715018
92714,CA,Irvine,33.68764,-117.798928
92801,CA,Anaheim,33.842679,-117.954035
93001,CA,San Buenaventura,34.290531,-119.28882
93010,CA,Camarillo,34.231328,-119.046361
93013,CA,Carpinteria,34.403589,-119.518257
93015,CA,Bardsdale,34.402557,-118.904071
93021,CA,Moorpark,34.278421,-118.877139
93022,CA,Oak View,34.402021,-119.298168
93023,CA,Ojai,34.44512,-119.256477
93030,CA,Oxnard,34.214142,-119.174952
93041,CA,Port Hueneme,34.162572,-119.197317
93042,CA,Point Mugu Nawc,34.123432,-119.09931
93043,CA,Port Hueneme Cbc,34.16212,-119.206008
93060,CA,Santa Paula,34.354718,-119.071328
93063,CA,Santa Susana,34.279202,-118.699229
93065,CA,Simi Valley,34.265589,-118.765349
93066,CA,Somis,34.279753,-119.011537
93067,CA,Summerland,34.424541,-119.596016
93101,CA,Santa Barbara,34.419668,-119.70782
93108,CA,Montecito,34.434258,-119.64255
93117,CA,Goleta,34.429631,-119.861245
93202,CA,Armona,36.309459,-119.705279
93203,CA,Arvin,35.196629,-118.8336
93204,CA,Avenal,35.987667,-120.122716
93205,CA,Bodfish,35.587046,-118.484656
93206,CA,Buttonwillow,35.403268,-119.465926
93207,CA,California Hot S,35.892422,-118.646317
93210,CA,Coalinga,36.162435,-120.348928
93212,CA,Corcoran,36.086455,-119.560665
93214,CA,Cuyama,34.933694,-119.661339
93215,CA,Delano,35.771511,-119.24594
93217,CA,Di Giorgio,35.247604,-118.846755
93219,CA,Earlimart,35.854195,-119.253406
93221,CA,Exeter,36.304055,-119.12928
93223,CA,Farmersville,36.300169,-119.205357
93224,CA,Fellows,35.202579,-119.564757
93225,CA,Frazier Park,34.826463,-119.035488
93226,CA,Glennville,35.737677,-118.71693
93230,CA,Hanford,36.331419,-119.649094
93234,CA,Huron,36.237144,-120.101964
93235,CA,Ivanhoe,36.385622,-119.218884
93238,CA,Kernville,35.755005,-118.404723
93239,CA,Kettleman City,36.021501,-119.964361
93240,CA,Mountain Mesa,35.617889,-118.441256
93241,CA,Lamont,35.257059,-118.912419
93242,CA,Laton,36.437834,-119.715565
93243,CA,Gorman,34.828862,-118.879126
93244,CA,Lemoncove,36.396084,-119.004986
93245,CA,Lemoore Naval Ai,36.309535,-119.831017
93247,CA,Lindsay,36.209551,-119.088427
93249,CA,Lost Hills,35.613111,-119.721573
93250,CA,Mc Farland,35.675779,-119.227156
93251,CA,Mc Kittrick,35.303097,-119.636627
93252,CA,Maricopa,35.038353,-119.407661
93254,CA,New Cuyama,34.996709,-119.823806
93255,CA,Onyx,35.713584,-118.190227
93256,CA,Pixley,35.955286,-119.256427
93257,CA,Porterville,36.068636,-119.031549
93260,CA,Posey,35.813496,-118.664286
93262,CA,Giant Forest,36.573878,-118.772271
93263,CA,Shafter,35.496994,-119.280075
93266,CA,Stratford,36.178976,-119.823564
93267,CA,Strathmore,36.147237,-119.079163
93268,CA,Taft,35.148164,-119.455674
93270,CA,Terra Bella,35.95698,-119.031239
93271,CA,Three Rivers,36.437686,-118.88754
93272,CA,Tipton,36.054567,-119.30781
93274,CA,Tulare,36.202155,-119.33802
93276,CA,Tupman,35.288547,-119.341994
93277,CA,Visalia,36.311379,-119.306471
93280,CA,Pond,35.593375,-119.344728
93283,CA,Weldon,35.639076,-118.285856
93285,CA,Wofford Heights,35.724556,-118.455877
93286,CA,Woodlake,36.431334,-119.091764
93287,CA,Woody,35.70681,-118.843872
93301,CA,Bakersfield,35.386611,-119.017063
93305,CA,College Heights,35.387772,-118.982042
93312,CA,Greenacres,35.382082,-119.15014
93401,CA,San Luis Obispo,35.263453,-120.650933
93402,CA,Los Osos,35.317203,-120.833261
93420,CA,Halcyon,35.11449,-120.57289
93422,CA,Atascadero,35.475439,-120.663838
93427,CA,Buellton,34.62093,-120.192233
93428,CA,Cambria,35.556568,-121.084029
93430,CA,Cayucos,35.444606,-120.890791
93431,CA,Cholame,35.543847,-120.194827
93432,CA,Creston,35.491543,-120.554238
93433,CA,Grover Beach,35.120969,-120.617348
93434,CA,Guadalupe,34.959989,-120.570329
93436,CA,Lompoc,34.658349,-120.450605
93442,CA,Morro Bay,35.37953,-120.844745
93444,CA,Nipomo,35.029806,-120.489413
93445,CA,Oceano,35.10187,-120.608044
93446,CA,Adelaide,35.635248,-120.670676
93449,CA,Shell Beach,35.149212,-120.651788
93450,CA,San Ardo,35.985685,-120.861191
93451,CA,Parkfield,35.753209,-120.696532
93452,CA,San Simeon,35.666815,-121.144033
93453,CA,California Valle,35.341254,-120.3202
93454,CA,Santa Maria,34.954538,-120.43245
93455,CA,Orcutt,34.879786,-120.429128
93460,CA,Santa Ynez,34.623966,-120.071332
93461,CA,Shandon,35.651273,-120.372047
93463,CA,Ballard,34.609931,-120.129286
93465,CA,Templeton,35.555082,-120.710737
93501,CA,Mojave,35.047767,-118.173475
93505,CA,California City,35.127783,-117.965142
93510,CA,Acton,34.483541,-118.195929
93513,CA,Big Pine,37.167857,-118.291597
93514,CA,Toms Place,37.386301,-118.44156
93516,CA,Boron,35.003748,-117.662921
93518,CA,Havilah,35.356798,-118.410264
93519,CA,Cantil,35.282558,-117.993868
93523,CA,North Edwards,34.930507,-117.915384
93526,CA,Independence,36.839578,-118.204808
93527,CA,Pearsonville,35.674498,-117.834844
93528,CA,Johannesburg,35.370655,-117.637325
93529,CA,June Lake,37.777324,-119.082492
93531,CA,Keene,35.237502,-118.607563
93532,CA,Elizabeth Lake,34.668297,-118.444719
93534,CA,Lancaster,34.690888,-118.149129
93535,CA,Hi Vista,34.684751,-118.063245
93536,CA,Quartz Hill,34.673619,-118.213336
93541,CA,Lee Vining,37.988988,-119.123413
93543,CA,Juniper Hills,34.547372,-117.957405
93544,CA,Crystalaire,34.495914,-117.798841
93545,CA,Lone Pine,36.579781,-118.057824
93546,CA,Crowley Lake,37.642361,-118.976383
93550,CA,Lake Los Angeles,34.571483,-118.061306
93551,CA,Leona Valley,34.601404,-118.181207
93554,CA,Randsburg,35.352176,-117.726396
93555,CA,China Lake Nwc,35.631376,-117.679733
93560,CA,Willow Springs,34.863117,-118.19636
93561,CA,Bear Valley Spri,35.129776,-118.522227
93562,CA,Argus,35.760817,-117.382992
93563,CA,Valyermo,34.339014,-117.8271
93601,CA,Ahwahnee,37.407631,-119.723251
93602,CA,Auberry,37.072635,-119.457202
93604,CA,Bass Lake,37.324359,-119.556839
93608,CA,Cantua Creek,36.492123,-120.335252
93609,CA,Caruthers,36.535847,-119.844581
93610,CA,Chowchilla,37.101371,-120.269077
93612,CA,Clovis,36.823146,-119.689757
93614,CA,Coarsegold,37.221378,-119.745545
93615,CA,Cutler,36.524266,-119.287023
93616,CA,Del Rey,36.654306,-119.59291
93618,CA,Dinuba,36.534931,-119.39087
93620,CA,Dos Palos,37.00253,-120.633348
93621,CA,Dunlap,36.744635,-119.089931
93622,CA,Firebaugh,36.8651,-120.470048
93623,CA,Fish Camp,37.51692,-119.642005
93625,CA,Fowler,36.628153,-119.671025
93626,CA,Friant,37.002416,-119.696501
93627,CA,Helm,36.499231,-120.093598
93630,CA,Kerman,36.730576,-120.072444
93631,CA,Kingsburg,36.508047,-119.543298
93633,CA,Kings Canyon Nat,36.780601,-119.068201
93635,CA,Los Banos,37.06266,-120.854387
93637,CA,Madera,36.94026,-120.081966
93640,CA,Mendota,36.742365,-120.409287
93641,CA,Miramonte,36.68938,-119.047718
93643,CA,North Fork,37.212531,-119.514324
93644,CA,Oakhurst,37.347561,-119.644854
93645,CA,O Neals,37.086874,-119.745369
93646,CA,Orange Cove,36.624283,-119.313502
93647,CA,Orosi,36.546368,-119.281522
93648,CA,Parlier,36.610265,-119.537482
93650,CA,Pinedale,36.841107,-119.800359
93651,CA,Prather,36.993799,-119.526771
93652,CA,Raisin,36.598928,-119.903158
93653,CA,Raymond,37.27898,-119.876567
93654,CA,Reedley,36.604406,-119.437785
93656,CA,Riverdale,36.429525,-119.871953
93657,CA,Sanger,36.7243,-119.547796
93660,CA,San Joaquin,36.605869,-120.188934
93664,CA,Shaver Lake,37.139695,-119.273031
93667,CA,Tollhouse,36.99434,-119.391415
93668,CA,Tranquillity,36.658376,-120.261655
93669,CA,Wishon,37.281028,-119.557014
93675,CA,Squaw Valley,36.707146,-119.181449
93701,CA,Fresno,36.748727,-119.786705
93704,CA,Fig Garden Villa,36.798781,-119.799745
93706,CA,Easton,36.700589,-119.820408
93725,CA,Calwa,36.675312,-119.742477
93901,CA,Salinas,36.667693,-121.659589
93907,CA,Prunedale,36.765385,-121.665588
93920,CA,Big Sur,36.245798,-121.700897
93923,CA,Carmel,36.545693,-121.894875
93924,CA,Carmel Valley,36.478709,-121.724356
93925,CA,Chualar,36.595042,-121.431964
93926,CA,Gonzales,36.490038,-121.410347
93927,CA,Greenfield,36.320178,-121.24507
93930,CA,King City,36.202776,-121.127329
93932,CA,Lockwood,35.989287,-121.205946
93933,CA,Marina,36.684922,-121.793383
93940,CA,Del Rey Oaks,36.595642,-121.8848
93941,CA,Fort Ord,36.644627,-121.804999
93950,CA,Pacific Grove,36.616737,-121.921957
93953,CA,Pebble Beach,36.590735,-121.942044
93955,CA,Sand City,36.609208,-121.835724
93960,CA,Soledad,36.41964,-121.324286
94002,CA,Belmont,37.517433,-122.292671
94005,CA,Brisbane,37.681104,-122.400118
94010,CA,Hillsborough,37.575884,-122.362952
94014,CA,Colma,37.698187,-122.452679
94015,CA,Daly City,37.678696,-122.478015
94019,CA,Half Moon Bay,37.479057,-122.445929
94020,CA,La Honda,37.272285,-122.293889
94021,CA,Loma Mar,37.254437,-122.281996
94022,CA,Los Altos,37.381432,-122.125754
94025,CA,West Menlo Park,37.453401,-122.179136
94027,CA,Atherton,37.456255,-122.200198
94028,CA,Ladera,37.378859,-122.208131
94030,CA,Millbrae,37.600382,-122.401985
94035,CA,Moffett Field,37.41001,-122.051944
94038,CA,Moss Beach,37.531039,-122.50683
94040,CA,Mountain View,37.385532,-122.087983
94044,CA,Pacifica,37.619559,-122.481607
94060,CA,Pescadero,37.206518,-122.364876
94061,CA,Redwood City,37.464661,-122.230406
94062,CA,Woodside,37.452119,-122.255879
94066,CA,San Bruno,37.624742,-122.429021
94074,CA,San Gregorio,37.325513,-122.355552
94080,CA,South San Franci,37.65382,-122.4347
94086,CA,Sunnyvale,37.376407,-122.023771
94102,CA,San Francisco,37.781334,-122.416728
94301,CA,Palo Alto,37.444324,-122.149685
94303,CA,East Palo Alto,37.455641,-122.131902
94305,CA,Stanford,37.423573,-122.161867
94401,CA,Russian River,37.572271,-122.320262
94402,CA,San Mateo,37.550685,-122.32762
94404,CA,Foster City,37.551614,-122.263577
94501,CA,Coast Guard Isla,37.764783,-122.260516
94507,CA,Alamo,37.853695,-122.022868
94508,CA,Angwin,38.576906,-122.447732
94509,CA,Antioch,37.993917,-121.808906
94510,CA,Benicia,38.068459,-122.161392
94512,CA,Birds Landing,38.150402,-121.844318
94513,CA,Brentwood,37.932415,-121.689427
94515,CA,Calistoga,38.582305,-122.581384
94523,CA,Pleasant Hill,37.954002,-122.07371
94525,CA,Crockett,38.051865,-122.217659
94528,CA,Diablo,37.83883,-121.960951
94530,CA,El Cerrito,37.915633,-122.298521
94535,CA,Travis Afb,38.274313,-121.946317
94536,CA,Fremont,37.560493,-121.999935
94541,CA,Hayward,37.674048,-122.089418
94546,CA,Castro Valley,37.701527,-122.078183
94547,CA,Hercules,38.006649,-122.263702
94548,CA,Knightsen,37.9818,-121.672149
94550,CA,Livermore,37.68299,-121.762983
94553,CA,Pacheco,37.993246,-122.111693
94556,CA,Moraga,37.843653,-122.124185
94558,CA,Spanish Flat,38.328137,-122.305518
94559,CA,Napa,38.290362,-122.284086
94561,CA,Oakley,37.994034,-121.703623
94563,CA,Orinda,37.878659,-122.172848
94564,CA,Pinole,37.996903,-122.287477
94565,CA,Shore Acres,38.016887,-121.908178
94566,CA,Pleasanton,37.665804,-121.8755
94567,CA,Pope Valley,38.678192,-122.472244
94568,CA,Dublin,37.716597,-121.922589
94569,CA,Port Costa,38.046013,-122.186649
94571,CA,Rio Vista,38.163734,-121.701635
94572,CA,Rodeo,38.03069,-122.258139
94574,CA,Saint Helena,38.513776,-122.461921
94577,CA,San Leandro,37.720467,-122.158705
94580,CA,San Lorenzo,37.678671,-122.129547
94583,CA,San Ramon,37.756188,-121.952224
94585,CA,Suisun City,38.240834,-122.042003
94586,CA,Sunol,37.609403,-121.898636
94587,CA,Union City,37.589458,-122.049702
94589,CA,American Canyon,38.148345,-122.249333
94590,CA,Vallejo,38.105302,-122.247367
94592,CA,Mare Island,38.094654,-122.27273
94595,CA,Walnut Creek,37.875317,-122.070259
94599,CA,Yountville,38.403813,-122.358506
94608,CA,Emeryville,37.836466,-122.280363
94702,CA,Berkeley,37.865611,-122.285126
94706,CA,Albany,37.890045,-122.295394
94707,CA,Kensington,37.893118,-122.276517
94801,CA,Richmond,37.940039,-122.36201
94803,CA,El Sobrante,37.969287,-122.290092
94806,CA,San Pablo,37.972374,-122.336929
94901,CA,San Rafael,37.969144,-122.510502
94903,CA,Civic Center,38.015044,-122.54521
94904,CA,Kentfield,37.950599,-122.535501
94920,CA,Belvedere,37.889885,-122.472627
94922,CA,Bodega,38.339264,-122.951364
94923,CA,Bodega Bay,38.330921,-123.037308
94924,CA,Bolinas,37.907875,-122.694655
94925,CA,Corte Madera,37.922256,-122.513202
94928,CA,Rohnert Park,38.347027,-122.69408
94930,CA,Fairfax,37.988289,-122.593711
94931,CA,Cotati,38.325918,-122.704831
94933,CA,Forest Knolls,38.012178,-122.69074
94937,CA,Inverness,38.083514,-122.856774
94938,CA,Lagunitas,38.013929,-122.701576
94939,CA,Larkspur,37.936743,-122.536202
94941,CA,Mill Valley,37.895757,-122.533885
94945,CA,Novato,38.1163,-122.571416
94946,CA,Nicasio,38.054622,-122.696402
94951,CA,Penngrove,38.315948,-122.671772
94952,CA,Petaluma,38.240349,-122.677727
94956,CA,Point Reyes Stat,38.064794,-122.81621
94960,CA,San Anselmo,37.984579,-122.571062
94963,CA,San Geronimo,38.017155,-122.67784
94965,CA,Sausalito,37.860147,-122.494555
94970,CA,Stinson Beach,37.901992,-122.639305
94972,CA,Valley Ford,38.315729,-122.924457
94973,CA,Woodacre,38.006933,-122.638247
95002,CA,Alviso,37.427659,-121.968597
95003,CA,Aptos,36.978477,-121.891979
95004,CA,Aromas,36.878522,-121.639781
95005,CA,Ben Lomond,37.086183,-122.083869
95006,CA,Boulder Creek,37.149934,-122.133053
95010,CA,Capitola,36.977359,-121.952145
95012,CA,Castroville,36.77142,-121.747368
95013,CA,Coyote,37.216721,-121.746021
95014,CA,Monte Vista,37.317363,-122.038604
95017,CA,Davenport,37.06306,-122.225735
95018,CA,Felton,37.063124,-122.062162
95019,CA,Freedom,36.936483,-121.776761
95020,CA,Gilroy,37.016005,-121.57825
95023,CA,Hollister,36.848404,-121.387101
95030,CA,Monte Sereno,37.211677,-121.978684
95032,CA,Los Gatos,37.231571,-121.950088
95035,CA,Milpitas,37.436491,-121.892885
95037,CA,Morgan Hill,37.129171,-121.64636
95043,CA,Paicines,36.49478,-121.032853
95045,CA,San Juan Bautist,36.849856,-121.532721
95046,CA,San Martin,37.091118,-121.599901
95050,CA,Santa Clara,37.34732,-121.954079
95060,CA,Scotts Valley,36.982946,-122.043612
95062,CA,Santa Cruz,36.972101,-121.988055
95073,CA,Soquel,37.003525,-121.950255
95076,CA,La Selva Beach,36.920515,-121.763437
95110,CA,San Jose,37.32966,-121.890299
95140,CA,Mount Hamilton,37.316087,-121.639948
95211,CA,Univ Of The Paci,37.980364,-121.310336
95220,CA,Acampo,38.200413,-121.218576
95222,CA,Angels Camp,38.064011,-120.55437
95223,CA,Bear Valley,38.24175,-120.342231
95228,CA,Copperopolis,37.937246,-120.638374
95231,CA,French Camp,37.877982,-121.282704
95237,CA,Lockeford,38.162436,-121.135611
95240,CA,Lodi,38.123579,-121.263034
95245,CA,Mokelumne Hill,38.328918,-120.567705
95246,CA,Mountain Ranch,38.220363,-120.548137
95247,CA,Murphys,38.126896,-120.461772
95249,CA,San Andreas,38.186732,-120.668703
95251,CA,Vallecito,38.101472,-120.467879
95255,CA,West Point,38.406201,-120.515862
95257,CA,Wilseyville,38.384566,-120.442356
95258,CA,Woodbridge,38.155124,-121.308632
95301,CA,Atwater,37.353154,-120.600837
95303,CA,Ballico,37.452455,-120.700152
95306,CA,Catheys Valley,37.441409,-120.069017
95307,CA,Ceres,37.588097,-120.949936
95309,CA,Chinese Camp,37.856829,-120.406673
95311,CA,Coulterville,37.738642,-119.985813
95313,CA,Crows Landing,37.438956,-121.019893
95315,CA,Delhi,37.428629,-120.775489
95316,CA,Denair,37.538419,-120.796474
95317,CA,El Nido,37.13452,-120.483235
95320,CA,Escalon,37.804428,-120.990044
95321,CA,Groveland,37.840899,-120.191809
95322,CA,Gustine,37.242456,-121.003965
95323,CA,Hickman,37.619989,-120.71722
95324,CA,Hilmar,37.408377,-120.856144
95325,CA,Hornitos,37.492226,-120.226443
95326,CA,Hughson,37.594364,-120.865281
95327,CA,Jamestown,37.906544,-120.494567
95329,CA,La Grange,37.678915,-120.358131
95330,CA,Lathrop,37.820897,-121.282652
95333,CA,Le Grand,37.234175,-120.251737
95334,CA,Livingston,37.376168,-120.716156
95335,CA,Cold Springs,38.20336,-120.001159
95336,CA,Manteca,37.80875,-121.21856
95338,CA,Mariposa,37.503918,-119.892496
95340,CA,Red Top,37.300724,-120.461668
95345,CA,Midpines,37.571009,-119.946548
95346,CA,Mi Wuk Village,38.105576,-120.131762
95348,CA,Merced,37.326964,-120.500897
95350,CA,Modesto,37.674649,-121.011303
95360,CA,Newman,37.317591,-121.025943
95361,CA,Knights Ferry,37.775323,-120.849474
95363,CA,Patterson,37.490592,-121.140732
95364,CA,Pinecrest,38.341062,-119.865195
95366,CA,Ripon,37.753286,-121.122909
95367,CA,Riverbank,37.732809,-120.943019
95368,CA,Salida,37.70713,-121.090484
95369,CA,Snelling,37.514359,-120.481615
95370,CA,Sonora,37.995692,-120.338498
95372,CA,Soulsbyville,37.992794,-120.259892
95374,CA,Stevinson,37.32575,-120.869856
95376,CA,Tracy,37.742116,-121.419723
95379,CA,Tuolumne,37.971339,-120.237496
95380,CA,Turlock,37.503605,-120.850511
95383,CA,Twain Harte,38.044722,-120.2155
95386,CA,Waterford,37.650988,-120.753862
95388,CA,Winton,37.39233,-120.6132
95401,CA,Santa Rosa,38.443123,-122.751722
95410,CA,Albion,39.215934,-123.721366
95411,CA,95411,40.161039,-123.610187
95412,CA,Annapolis,38.714485,-123.314214
95414,CA,95414,40.290394,-123.649246
95415,CA,Boonville,39.035007,-123.401954
95417,CA,Branscomb,39.700531,-123.554982
95420,CA,Caspar,39.365102,-123.798489
95421,CA,Cazadero,38.566335,-123.182896
95422,CA,Clearlake,38.957138,-122.636089
95423,CA,Clearlake Oaks,39.034838,-122.66873
95425,CA,Cloverdale,38.799396,-123.011725
95427,CA,Comptche,39.249919,-123.585652
95428,CA,Covelo,39.801864,-123.215015
95429,CA,Dos Rios,39.709298,-123.298294
95432,CA,Elk,39.160402,-123.723961
95436,CA,Forestville,38.489442,-122.896683
95437,CA,Fort Bragg,39.437452,-123.78835
95440,CA,95440,40.101665,-123.842409
95441,CA,Geyserville,38.700398,-122.888921
95442,CA,Glen Ellen,38.362538,-122.521002
95443,CA,Glenhaven,38.99008,-122.522035
95444,CA,Graton,38.434971,-122.866766
95445,CA,Gualala,38.803619,-123.553975
95446,CA,Guerneville,38.509573,-122.994416
95448,CA,Healdsburg,38.61553,-122.856529
95449,CA,Hopland,38.972056,-123.116956
95450,CA,Jenner,38.474093,-123.135379
95451,CA,Kelseyville,38.946164,-122.781707
95452,CA,Kenwood,38.416794,-122.554679
95453,CA,Lakeport,39.055147,-122.915082
95454,CA,Laytonville,39.667811,-123.486862
95455,CA,95455,39.851774,-123.618247
95456,CA,Littleriver,39.271042,-123.753089
95457,CA,Lower Lake,38.860682,-122.575426
95458,CA,Lucerne,39.083393,-122.785125
95459,CA,Manchester,38.992088,-123.670962
95460,CA,Mendocino,39.323212,-123.78846
95461,CA,Middletown,38.782504,-122.64352
95462,CA,Russian River Md,38.462668,-123.00447
95464,CA,Nice,39.122341,-122.842409
95465,CA,Occidental,38.396911,-122.988194
95466,CA,Philo,39.120005,-123.538218
95467,CA,95467,39.962583,-123.814656
95468,CA,Point Arena,38.915264,-123.660756
95469,CA,Potter Valley,39.329639,-123.104181
95470,CA,Redwood Valley,39.269446,-123.213289
95472,CA,Freestone,38.391543,-122.838503
95476,CA,Sonoma,38.295659,-122.472843
95482,CA,Ukiah,39.151917,-123.200692
95485,CA,Upper Lake,39.160829,-122.896114
95488,CA,Westport,39.644059,-123.76426
95489,CA,95489,40.038453,-124.032628
95490,CA,Willits,39.411426,-123.350271
95492,CA,Windsor,38.543182,-122.804375
95493,CA,Witter Springs,39.182118,-122.97105
95494,CA,Yorkville,38.908945,-123.233867
95495,CA,95495,40.203331,-123.381217
95497,CA,The Sea Ranch,38.725627,-123.467486
95501,CA,Eureka,40.776237,-124.155892
95521,CA,Mc Kinleyville,40.904901,-124.081069
95524,CA,Bayside,40.822381,-124.027305
95525,CA,Blue Lake,40.928701,-123.896696
95526,CA,Ruth,40.468566,-123.549351
95527,CA,Burnt Ranch,40.772238,-123.461248
95528,CA,Carlotta,40.507027,-123.974287
95531,CA,Crescent City,41.785402,-124.178448
95540,CA,Fortuna,40.584931,-124.140654
95543,CA,Gasquet,41.862768,-123.912467
95546,CA,Hoopa,41.105937,-123.692754
95547,CA,Hydesville,40.549576,-124.084489
95548,CA,Klamath,41.542075,-124.033907
95549,CA,Kneeland,40.71262,-123.946421
95550,CA,Korbel,40.824369,-123.859413
95551,CA,Loleta,40.6531,-124.228826
95552,CA,Mad River,40.352352,-123.413994
95554,CA,Myers Flat,40.194758,-123.822713
95555,CA,Orick,41.30724,-124.050319
95556,CA,Orleans,41.318092,-123.529564
95558,CA,Petrolia,40.300558,-124.251236
95560,CA,Redway,40.110081,-123.844194
95562,CA,Rio Dell,40.495147,-124.104386
95563,CA,Salyer,40.89095,-123.547833
95564,CA,Samoa,40.803712,-124.193571
95565,CA,Scotia,40.454665,-124.039074
95567,CA,Smith River,41.936218,-124.166115
95568,CA,Somes Bar,41.43304,-123.475928
95569,CA,Redcrest,40.406458,-123.94205
95570,CA,Westhaven,41.087949,-124.101253
95573,CA,Willow Creek,40.938894,-123.631062
95605,CA,Bryte,38.592424,-121.526377
95606,CA,Brooks,38.739277,-122.133391
95607,CA,Capay,38.696964,-122.100993
95608,CA,Carmichael,38.628393,-121.328683
95610,CA,Citrus Heights,38.694571,-121.269211
95612,CA,Clarksburg,38.395963,-121.556853
95614,CA,Cool,38.903633,-120.972963
95616,CA,Davis,38.554817,-121.748495
95618,CA,El Macero,38.542151,-121.676722
95619,CA,Diamond Springs,38.66302,-120.836071
95620,CA,Liberty Farms,38.458691,-121.815825
95624,CA,Elk Grove,38.412744,-121.359914
95626,CA,Elverta,38.716424,-121.431038
95627,CA,Esparto,38.694191,-122.021391
95629,CA,Fiddletown,38.53141,-120.715926
95630,CA,El Dorado Hills,38.687885,-121.140927
95631,CA,Foresthill,39.00229,-120.861127
95632,CA,Galt,38.269846,-121.29383
95633,CA,Garden Valley,38.866495,-120.856672
95636,CA,Grizzly Flats,38.628665,-120.542508
95637,CA,Guinda,38.816568,-122.189659
95638,CA,Herald,38.31282,-121.158898
95640,CA,Ione,38.351882,-120.943265
95641,CA,Isleton,38.155392,-121.604858
95643,CA,Kelsey,38.797636,-120.824056
95645,CA,Knights Landing,38.822032,-121.720003
95650,CA,Loomis,38.80711,-121.169826
95651,CA,Lotus,38.801712,-120.928864
95652,CA,Mcclellan Afb,38.655416,-121.40311
95653,CA,Madison,38.680164,-121.972129
95655,CA,Mather Afb,38.549224,-121.282394
95658,CA,Newcastle,38.872467,-121.142616
95659,CA,Trowbridge,38.882726,-121.553043
95660,CA,North Highlands,38.68855,-121.374913
95661,CA,Roseville,38.734612,-121.233968
95662,CA,Orangevale,38.682384,-121.222902
95663,CA,Penryn,38.856654,-121.179149
95664,CA,Pilot Hill,38.826312,-121.029765
95665,CA,Pine Grove,38.396783,-120.643713
95666,CA,Pioneer,38.460271,-120.531815
95667,CA,Placerville,38.719479,-120.804564
95669,CA,Plymouth,38.48811,-120.870258
95670,CA,Gold River,38.601897,-121.289434
95672,CA,Rescue,38.719353,-120.994526
95673,CA,Rio Linda,38.689311,-121.445152
95674,CA,Rio Oso,38.960998,-121.505305
95677,CA,Rocklin,38.791898,-121.243406
95679,CA,Rumsey,38.8762,-122.253738
95682,CA,Cameron Park,38.665616,-120.975925
95683,CA,Rancho Murieta,38.507475,-121.094089
95684,CA,Somerset,38.607414,-120.666306
95685,CA,Sutter Creek,38.418569,-120.785454
95687,CA,Vacaville,38.341915,-121.962285
95689,CA,Volcano,38.477319,-120.617761
95690,CA,Walnut Grove,38.236362,-121.524849
95691,CA,West Sacramento,38.567979,-121.539671
95692,CA,Wheatland,39.019197,-121.422126
95694,CA,Winters,38.529462,-121.974544
95698,CA,Zamora,38.799896,-121.90654
95701,CA,Alta,39.228032,-120.773165
95703,CA,Applegate,38.995487,-120.990511
95709,CA,Camino,38.744938,-120.671979
95713,CA,Iowa Hill,39.076936,-120.960163
95714,CA,Dutch Flat,39.197788,-120.826224
95715,CA,Emigrant Gap,39.286907,-120.662902
95717,CA,Gold Run,39.175102,-120.856909
95720,CA,Kyburz,38.780036,-120.25529
95721,CA,Echo Lake,38.810254,-120.070498
95722,CA,Meadow Vista,39.003101,-121.029155
95724,CA,Norden,39.319566,-120.400876
95726,CA,Pacific House,38.745581,-120.585114
95728,CA,Soda Springs,39.338467,-120.465493
95735,CA,Twin Bridges,38.808615,-120.128851
95742,CA,Rancho Cordova,38.604313,-121.204019
95814,CA,Sacramento,38.579792,-121.489404
95901,CA,Marysville,39.141653,-121.522467
95910,CA,Alleghany,39.512698,-120.727176
95912,CA,Arbuckle,39.013787,-122.027405
95914,CA,Bangor,39.424862,-121.350499
95915,CA,Belden,39.921746,-121.325924
95916,CA,Berry Creek,39.638394,-121.385467
95917,CA,Biggs,39.414918,-121.695873
95918,CA,Browns Valley,39.284428,-121.346482
95919,CA,Brownsville,39.452534,-121.261179
95920,CA,Butte City,39.456348,-121.978046
95922,CA,Camptonville,39.450784,-121.023066
95923,CA,Canyondam,40.207958,-121.156324
95926,CA,Cohasset,39.756466,-121.851806
95928,CA,Chico,39.729523,-121.81555
95932,CA,Colusa,39.21311,-122.011563
95934,CA,Crescent Mills,40.081915,-120.881993
95935,CA,Dobbins,39.371469,-121.234386
95936,CA,Downieville,39.570265,-120.677767
95937,CA,Dunnigan,38.893671,-121.996577
95938,CA,Durham,39.641599,-121.791983
95939,CA,Elk Creek,39.598914,-122.557244
95941,CA,Forbestown,39.541712,-121.213443
95942,CA,Butte Meadows,40.129931,-121.500205
95943,CA,Glenn,39.606871,-122.038443
95944,CA,Goodyears Bar,39.572891,-120.820698
95945,CA,Grass Valley,39.207617,-121.037401
95946,CA,Penn Valley,39.218778,-121.193519
95948,CA,Gridley,39.358855,-121.689777
95953,CA,Live Oak,39.266904,-121.66393
95954,CA,Magalia,39.831728,-121.597455
95955,CA,Maxwell,39.292494,-122.195161
95956,CA,Meadow Valley,39.918488,-121.05629
95957,CA,Meridian,39.116812,-121.88138
95959,CA,Nevada City,39.275395,-121.019634
95960,CA,North San Juan,39.354037,-121.13498
95961,CA,Olivehurst,39.089483,-121.550059
95962,CA,Oregon House,39.314388,-121.209229
95963,CA,Orland,39.744578,-122.157885
95965,CA,Pulga,39.532967,-121.578396
95966,CA,Oroville,39.491448,-121.502029
95968,CA,Palermo,39.436148,-121.545389
95969,CA,Paradise,39.759804,-121.603097
95971,CA,Quincy,39.940504,-120.928493
95972,CA,Rackerby,39.4059,-121.336192
95975,CA,Rough And Ready,39.228585,-121.150856
95977,CA,Smartville,39.204305,-121.266716
95979,CA,Stonyford,39.333652,-122.517811
95981,CA,La Porte,39.604136,-121.074566
95982,CA,Sutter,39.168114,-121.756527
95983,CA,Taylorsville,40.064911,-120.801797
95984,CA,Twain,40.002769,-121.150729
95988,CA,Willows,39.523751,-122.199204
95991,CA,Yuba City,39.128619,-121.621599
96001,CA,Redding,40.560493,-122.411627
96006,CA,Adin,41.21751,-120.943193
96010,CA,Big Bar,40.74796,-123.229006
96013,CA,Burney,40.894927,-121.655036
96014,CA,Callahan,41.383257,-122.764046
96015,CA,Canby,41.466358,-120.921769
96016,CA,Cassel,40.907832,-121.524497
96019,CA,Shasta Lake,40.680262,-122.365395
96024,CA,Douglas City,40.634151,-122.923867
96025,CA,Dunsmuir,41.212439,-122.273397
96027,CA,Sawyers Bar,41.468303,-122.914189
96028,CA,Fall River Mills,41.03931,-121.460562
96031,CA,Forks Of Salmon,41.256978,-123.09781
96032,CA,Fort Jones,41.617027,-122.883207
96033,CA,French Gulch,40.703517,-122.622868
96034,CA,Gazelle,41.510485,-122.537122
96035,CA,Gerber,40.042997,-122.164937
96038,CA,Grenada,41.612512,-122.525829
96039,CA,Happy Camp,41.801802,-123.388045
96040,CA,Hat Creek,40.767673,-121.463687
96041,CA,Hayfork,40.550431,-123.163416
96044,CA,Hornbrook,41.907738,-122.526528
96045,CA,Horse Creek,41.833732,-123.013919
96047,CA,Igo,40.431795,-122.654023
96050,CA,Klamath River,41.863699,-122.819693
96051,CA,Lakehead,40.958775,-122.359281
96052,CA,Lewiston,40.745986,-122.842591
96055,CA,Los Molinos,40.049735,-122.099175
96056,CA,Mcarthur,41.111407,-121.214896
96057,CA,Mccloud,41.252108,-122.13562
96058,CA,Macdoel,41.883028,-121.944472
96059,CA,Manton,40.433125,-121.836521
96062,CA,Millville,40.565316,-122.111088
96063,CA,Mineral,40.328826,-121.524807
96064,CA,Montague,41.724294,-122.463799
96065,CA,Montgomery Creek,40.912378,-121.923313
96067,CA,Mount Shasta,41.317435,-122.324017
96069,CA,Oak Run,40.68631,-122.040932
96071,CA,Old Station,40.62557,-121.458476
96073,CA,Palo Cedro,40.576661,-122.239805
96075,CA,Paynes Creek,40.351415,-121.764952
96076,CA,Wildwood,40.316528,-122.918013
96080,CA,Red Bluff,40.179535,-122.238281
96085,CA,Scott Bar,41.77364,-122.988183
96086,CA,Seiad Valley,41.886589,-123.243762
96087,CA,Shasta,40.610896,-122.49685
96088,CA,Shingletown,40.504959,-121.885668
96091,CA,Trinity Center,41.061548,-122.723919
96093,CA,Weaverville,40.731701,-122.935303
96094,CA,Edgewood,41.439466,-122.384803
96096,CA,Whitmore,40.65255,-121.877076
96097,CA,Yreka,41.720558,-122.637604
96101,CA,Alturas,41.476742,-120.545584
96103,CA,Cromberg,39.784745,-120.627397
96105,CA,Chilcoot,39.805683,-120.175212
96107,CA,Coleville,38.502903,-119.482784
96108,CA,Davis Creek,41.862555,-120.323549
96109,CA,Doyle,40.000799,-120.107693
96111,CA,Floriston,39.445746,-120.025421
96112,CA,Fort Bidwell,41.864441,-120.161983
96113,CA,Herlong,40.148492,-120.171271
96114,CA,Janesville,40.296325,-120.50982
96117,CA,Litchfield,40.362788,-120.253975
96118,CA,Loyalton,39.662974,-120.229662
96120,CA,Hope Valley,38.76473,-119.807275
96121,CA,Milford,40.182763,-120.389508
96122,CA,Portola,39.810883,-120.466858
96123,CA,Ravendale,40.831705,-120.16001
96124,CA,Calpine,39.651699,-120.4442
96125,CA,Sierra City,39.559248,-120.624135
96126,CA,Sierraville,39.594294,-120.347789
96128,CA,Standish,40.350863,-120.406847
96130,CA,Susanville,40.398282,-120.646442
96132,CA,Termo,40.946667,-120.517378
96133,CA,Topaz,38.64151,-119.512164
96134,CA,Tulelake,41.931621,-121.434688
96135,CA,Vinton,39.720719,-120.204994
96136,CA,Wendel,40.346233,-120.352156
96137,CA,Peninsula Villag,40.270359,-121.109224
96140,CA,Carnelian Bay,39.231937,-120.075328
96142,CA,Tahoma,39.064406,-120.135747
96143,CA,Kings Beach,39.240119,-120.023287
96145,CA,Tahoe City,39.180618,-120.144532
96148,CA,Tahoe Vista,39.24475,-120.052128
96150,CA,South Lake Tahoe,38.916976,-119.986469
96161,CA,Truckee,39.338546,-120.172942
80002,CO,Arvada,39.794533,-105.098402
80010,CO,Aurora,39.736788,-104.864618
80020,CO,Broomfield,39.924513,-105.060902
80022,CO,Commerce City,39.825875,-104.911349
80033,CO,Wheat Ridge,39.774036,-105.096195
80101,CO,Agate,39.420256,-103.984575
80102,CO,Bennett,39.725398,-104.427284
80103,CO,Byers,39.698454,-104.201872
80104,CO,Castle Rock,39.39256,-104.860187
80105,CO,Deer Trail,39.593121,-104.068003
80106,CO,Elbert,39.096892,-104.574631
80110,CO,Cherry Hills Vil,39.646027,-104.990022
80112,CO,Englewood,39.58051,-104.901115
80116,CO,Franktown,39.372841,-104.725569
80117,CO,Kiowa,39.323972,-104.452263
80120,CO,Littleton,39.599426,-105.0044
80121,CO,Greenwood Villag,39.605835,-104.957285
80123,CO,Bow Mar,39.596854,-105.07766
80126,CO,Highlands Ranch,39.55134,-104.963751
80132,CO,Monument,39.100726,-104.85416
80133,CO,Palmer Lake,39.120498,-104.914795
80134,CO,Parker,39.505466,-104.734904
80135,CO,Deckers,39.330109,-105.008305
80136,CO,Strasburg,39.781359,-104.268258
80137,CO,Watkins,39.762317,-104.583391
80202,CO,Denver,39.749107,-104.994591
80214,CO,Edgewater,39.746931,-105.062036
80221,CO,Federal Heights,39.840562,-105.007985
80233,CO,Northglenn,39.901222,-104.958257
80301,CO,Boulder,40.049733,-105.21426
80401,CO,Golden,39.730548,-105.191528
80421,CO,Bailey,39.448233,-105.469282
80422,CO,Black Hawk,39.801105,-105.503991
80423,CO,Bond,39.869119,-106.676273
80428,CO,Clark,40.726783,-106.921482
80429,CO,Climax,39.298804,-106.258027
80430,CO,Coalmont,40.538252,-106.532134
80433,CO,Conifer,39.519735,-105.316873
80440,CO,Fairplay,39.225617,-105.999416
80441,CO,Foxton,39.372056,-105.24815
80446,CO,Granby,40.012834,-105.889916
80447,CO,Grand Lake,40.228862,-105.860488
80452,CO,Idaho Springs,39.740192,-105.598261
80459,CO,Kremmling,40.063224,-106.395472
80461,CO,Leadville,39.249742,-106.301545
80463,CO,Mc Coy,39.913377,-106.730906
80465,CO,Morrison,39.612452,-105.174641
80466,CO,Nederland,39.970259,-105.481265
80467,CO,Oak Creek,40.256733,-106.929621
80468,CO,Parshall,40.053765,-106.225492
80470,CO,Pine,39.46667,-105.374116
80471,CO,Pinecliffe,39.942898,-105.354004
80474,CO,Rollinsville,39.910757,-105.472596
80479,CO,Toponas,40.119601,-106.908172
80480,CO,Walden,40.709978,-106.276728
80487,CO,Steamboat Spring,40.474124,-106.8457
80501,CO,Longmont,40.177921,-105.10095
80510,CO,Allenspark,40.226775,-105.520064
80512,CO,Bellvue,40.626528,-105.260977
80513,CO,Berthoud,40.299333,-105.105459
80514,CO,Dacono,40.08361,-104.929705
80515,CO,Drake,40.443257,-105.296925
80516,CO,Erie,40.059746,-105.068583
80517,CO,Estes Park,40.365761,-105.514163
80521,CO,Fort Collins,40.581293,-105.103884
80534,CO,Johnstown,40.335526,-104.923558
80535,CO,Laporte,40.634683,-105.148757
80536,CO,Virginia Dale,40.779878,-105.367745
80537,CO,Loveland,40.384917,-105.09164
80540,CO,Lyons,40.235715,-105.323071
80543,CO,Milliken,40.310656,-104.876137
80545,CO,Red Feather Lake,40.796451,-105.624455
80601,CO,Lochbui,39.980553,-104.810278
80610,CO,Ault,40.593772,-104.735629
80611,CO,Briggsdale,40.639192,-104.28707
80612,CO,Carr,40.866551,-104.885865
80615,CO,Eaton,40.527272,-104.714559
80620,CO,Evans,40.380255,-104.697095
80621,CO,Wattenburg,40.078876,-104.865639
80622,CO,Galeton,40.515034,-104.597254
80624,CO,Gill,40.469586,-104.499995
80631,CO,Garden City,40.413968,-104.704756
80634,CO,Greeley,40.410947,-104.754113
80642,CO,Hudson,40.060555,-104.653208
80643,CO,Keenesburg,40.095847,-104.446366
80644,CO,Kersey,40.396305,-104.528768
80645,CO,La Salle,40.321138,-104.726784
80648,CO,Nunn,40.726483,-104.785012
80649,CO,Orchard,40.363946,-104.097325
80650,CO,Pierce,40.635911,-104.763764
80651,CO,Platteville,40.213121,-104.802776
80652,CO,Roggen,40.207445,-104.315747
